,name,address,lat,long,review_count,average_rating
0,Shreyans Inn,"B-2/5, Safdarjung Enclave, Africa Avenue , Near R.K Khanna Lawn Tennis Stadium, Safdarjung Enclave, 110029 New Delhi, India",28.56251918,77.18886986,49.0,7.1
1,Bamboo Yoga,"South End Patnem Beach, Patnem, Goa, 403702 Patnem, India",14.99687253,74.03394967,36.0,9.2
2,Kashinath Beach Huts,"Agonda Beach,, 403702 Agonda, India",15.04399495,73.98712903,19.0,8.4
3,Kites Stay,"Kites Stay, Mangal Complex, Kumaran Street Opposite MEPZ, Service Lane, Tambaram Sanitorium, 600045 Chennai, India",12.936722,80.12788499999999,,
4,P3 Beach inn,"Titos Lane, 403516 Baga, India",15.556529000000001,73.754037,3.0,5.7
5,OYO 9151 Hotel Sri Sai Comforts,"183/28, 36th B Cross, Jayanagar 7th Block, 560082 Bangalore, India",12.9242203,77.578108,28.0,6.9
6,Seagull beach apartments,"Benaulim Beach Road Seagull apartments S3, 403716 Benaulim, India",15.25155,73.923305,,
7,"Taj Malabar Resort & Spa, Cochin.","Willingdon Island, Cochin, 682009 Cochin, India",9.96868154,76.25844777,460.0,9.0
8,Treebo Trend New Redfern,"Brahmins Valley, Temple road, Stuart hill, Madikeri, 571201 Madikeri, India",12.420860000000001,75.74213,15.0,7.7
9,"Usha Farmhouse Restaurant, FunZone & Adventure Park","153 AB Road Janapaw Kuti,, 453661 Indore, India",22.629314,75.808549,,
10,OYO 2844 Dewa Goa Hotel,"Next to Dominos Dabolim, NH 17, Dabolim, 403711 Old Goa, India",15.39059981,73.84928667,22.0,5.1
11,SJM Homestays - Saligramam,"18 Sarojini Street, 600093 Chennai, India",13.05525745,80.20186797,2.0,
12,The Majestic Crown,"959A Westbury Road, Mysore Road, 643001 Ooty, India",11.41296503,76.69216007,171.0,7.0
13,Eden Park,"Aruthra Nagar, Puducherry, 605006 Pondicherry, India",11.94098518,79.80795485,12.0,8.3
14,OYO 60645 Sunrise Inn,"Gottigere Lake Rd, Bohra Layout, Gottigere, Bangalore, 560083 Bangalore, India",12.85583578,77.59422038,1.0,
15,M R HOSPITALITY SERVICES,"5-6/8, 11th Main Road, Bombay Dyeing Road, Gokula 1St Stage 2nd Phase, Mathikere Main Road, Bengaluru., 560054 Bangalore, India",13.0303,77.559813,2.0,
16,Langford keys by TGI,"35 Langford Road Cross Road, Bheemanna Garden Shanti Nagar, 560025 Bangalore, India",12.962394,77.595298,1.0,
17,OYO Home 47510 Peaceful 3bhk Parra,"Near Don Bosco Youth Welfare Centre,cannca, Naika Waddo, Verla, Goa, 403510 Old Goa, India",15.587614000000002,73.78851999999999,,
18,Amigos India,"C16 Chattarpur Enclave Near Modern School, 110074 New Delhi, India",28.50439897,77.19063077,362.0,8.7
19,The BMK Hotel Greater Kailash,"B-2&3, Greater Kailash Enclave - 1, New Delhi 110048, India, 110048 New Delhi, India",28.542996999999996,77.24202,296.0,7.2
20,Bridge N Tunnel Palolem,"Palolem Beach, Canacona, Goa, 403702 Palolem, India",15.00321744,74.0264985,38.0,8.2
21,"Hotel Emarald, New Delhi","112 Babar Road, Connaught Place Opp. World Trade Centre, 110001 New Delhi, India",28.63243781,77.22707726,61.0,6.8
22,Periyar Resorts & Hotel (P) Ltd.,"Idamalayar Road Boothathankettu Kothamanagalam, 686681 Cochin, India",10.135725,76.662704,1.0,
23,Magnificent 3Bedroom Apt-GK1. 5 Min Walk Metro Stn,"E-94 Block E Greater Kailash Road Number 3, Greater Kailash 1, 110048 New Delhi, India",28.55160848,77.245853,1.0,
24,OYO 658 Hotel Seven Seas,"Plot No. A- 6,Nemi Nagar, Gandhi Path, Vaishali Nagar, 302021 Jaipur, India",26.905867999999998,75.739372,,
25,Hotel Soyang UVA,"New Market ( MG Marg) Behind Union Bank of India, 737101 Gangtok, India",27.32549145,88.61205859,22.0,4.2
26,Hotel Four Season,"77-A,78, Nr. Pacific university, Airport Road, Pratap Nagar, Udaipur, 313001 Udaipur, India",24.595167,73.77488100000001,1.0,
27,Dom Carlos Resort,"253/2, 253/3, Ghorbhat Wado Near Villa Nina, 403516 Arpora, India",15.56232934,73.76234720000001,6.0,8.2
28,Budget Stay at Mussoorie Mall road,"The Mall Road, Mussoorie, Uttarakhand 248001, 248001 Mussoorie, India",30.4585,78.073751,2.0,
29,OYO 8883 Hotel Comfort Zone,"Behind Sudarshan Cinema, Near Hotel Vishwnath, Charbagh, 226001 Lucknow, India",26.8332,80.9207,3.0,5.8
30,Ginger Hotel Goa,"Plot No.37, 38, SGO Complex, EDC, Pato, Near Passport Office, 403001 Panaji, India",15.49468319,73.83429945,155.0,7.1
31,OYO 70180 Rvt Nest,"1, S N V Garden Rd, Ramanathapuram, Coimbatore, 641045 Coimbatore, India",10.990672,76.999466,,
32,Treebo Trip Aakash Bika Guest House,"DA22, DA Block, Sector 1, Bidhannagar,Salt Lake Sector 1, 700064 Kolkata, India",22.586384,88.402925,5.0,8.5
33,OYO 66323 Hotel A.k. Residency House,"10-B, 10-B, Krantiveer Lakhuji Salve Marg, Kondivita, Andheri East, 400069 Mumbai, India",19.108917,72.88763900000001,,
34,Aero Lift Hotel,"Road No.2 , Mahipalpur , New Delhi Move to N.H -8 In Road No.2, Mahipalpur, 110037 New Delhi, India",28.54770773,77.12844159,28.0,8.5
35,FabHotel Prime II,"Plot No. 31, Madhura Nagar, Shamshabad, Telangana, 500081 Hyderabad, India",17.25920536,78.38235179,27.0,7.5
36,Fortune Acron Regina - Member ITC Hotel Group,"376, Off Fort Aguada Road, 403515 Candolim, India",15.51129714,73.77215803,202.0,7.6
37,Stay Wild Homestay,"Chappanda kere Galibeedu village and post Kodagu district, 571201 Madikeri, India",12.4692013,75.6842967,,
38,Hari Piorko By Backpacker Panda 1,"4778, Main Bazaar Paharganj, Paharganj, 110055 New Delhi, India",28.641075,77.214021,22.0,7.0
39,Pacino Serviced Apartments,"4th Street, 600117 Chennai, India",12.93850759,80.18690427,1.0,
40,Apple Tree Apartment & Suites,"Old No. 78/3, New No. 1/3, Kaveri Arcade, 1st Cross, 1st Main, S G Palya, Tavarekere Main Road,, 560029 Bangalore, India",12.929466,77.60947900000001,4.0,
41,Den-Vennel Guest House(Metro Access),"Atabagan Main Road 12 Garia,boral connector,oppo-sitala mandir, 700084 Kolkata, India",22.45696349,88.37887287,34.0,9.6
42,Amneu Forest Way Cottage,"Hadimba Temple Road Village Dhungri, Old Manali, 175131 Manāli, India",32.24752254,77.17619995,76.0,8.4
43,OYO 60914 Crb Palace,"Chaudhary Lalchand Bidhuri Marg, Mehalla Mohalla, Bhangar Mohalla, Madanpur Khadar Village, Madanpur Khadar, Delhi, 110044 New Delhi, India",28.53585125,77.29914688,,
44,Nanu's Vacation House,"368/2 munang waddo asagao bardez, 403507 Mapusa, India",15.60130716,73.76082951,,
45,FabExpress Gomti,"35/1 Tyagi Road, Govind Nagar, Race Course Dehradun, Uttarakhand, 248001, 248001 Dehradun, India",30.314942,78.037141,1.0,
46,Sagar Darshan Palace,"44 Outside Chandpole, 313001 Udaipur, India",24.582742,73.68069100000001,27.0,7.6
47,Flavia Guest House,"Flavia Paradise Palolem Beach Mohanbagh Cancona, 403702 Canacona, India",15.008425,74.026134,27.0,8.1
48,Agnelo's Holiday Homes,"House Number 1036, Escrivao Vaddo,, 403515 Candolim, India",15.52534609,73.76372190000001,2.0,
49,SPOT ON 48722 Hotel Iceland,"E8, 4, Mandir St, Door Sanchar Colony, Shahpura, 462016 Bhopal, India",23.193797,77.433782,,
50,Zostel Mussoorie,"Banglow Ki Kandi Village Road (via Kempty Mussoorie Road), 248179 Mussoorie, India",30.48238919,78.03667843,13.0,9.3
51,"4-BR villa with pool, near Candolim Beach","Villa no-3, Room no.-800, Saipem Hills, Pilerne - Candolim Road, Pilerne Industrial Estates, Candolim, Goa, 403114 Candolim, India",15.5249709,73.7866925,7.0,9.2
52,SilverKey Executive Stays 37680 Vishrantwadi,"14, Shanti Nagar, Visharant Wadi, Pune, 411006 Pune, India",18.566876999999998,73.87821,,
53,Well-Lit Stay in Delhi (Exclusive Offer!),"BE - 151, Street number 5, Hari Nagar, 110064 New Delhi, India",28.628428999999997,77.12079,1.0,
54,Hotel Rockland Inn,"Kanyal Road, Simsa Rangri, Dist Kullu, Himachal Pradesh, 175131 Manāli, India",32.22273573,77.18879342,,
55,Treehouse Blue Goa,"C/O, Green Olive Collection, S.No.136/1-C, Curilo Waddo, 403713 Majorda, India",15.32012794,73.91823247,37.0,6.9
56,Hotel Embassy,"#2/1 ,1,2/1 ,Ananthashrama lane , S.C Road cross, Near Kapal theater, Majestic, 560009 Bangalore, India",12.97725715,77.57572688,48.0,7.3
57,The Krishnalila Regency,"Near Gulab Bagh, Lake Palace Road, 313001 Udaipur, India",24.57532399,73.69359612,26.0,7.4
58,Uday Suites - The Airport Hotel,"Karthikeyam Beach PO,Shanghumugham, 695007 Trivandrum, India",8.48390178,76.91097021,469.0,8.3
59,Sai Palace Hotel,"Mahakali Caves Road, Chakala, Andheri(E), 400093 Mumbai, India",19.1147591,72.86010504,12.0,7.9
60,hotel Broadway,"21, defense enclave lane 3, Amritsar. punjab., 143001 Amritsar, India",31.65949,74.83918299999999,1.0,
61,OYO Townhouse 005 Jubilee Hills,"1089 Road No. 55 Jubilee Hills , Jubilee Hills, 500033 Hyderabad, India",17.430467,78.406025,76.0,7.7
62,OYO Townhouse 311 ??? Ekana Stadium,"Prithvipuram , Ahimamau ,sultanpur road , Gomtinagar Ext., Lucknow, Uttar Pradesh, 226017 Lucknow, India",26.800176,81.008585,,
63,SPOT ON 67628 Hotel Ashirvad Guest Houseguest House,"Hotel Ashirvad Guest House, Kishandayal Market, Beside Fruit Market, Nr. Vijaymill Naroda Road, Naroda, Ahmedabad, 382424 Ahmedabad, India",23.049035699999997,72.6238582,2.0,
64,Jheelam Homestay,"Jheelam, Old Dairy Farm, Bairagarh, 462030 Bhopal, India",23.2638899,77.34039724,18.0,8.2
65,OYO 44428 Paragon Heritage,"13/11, APMC yard,EMA complex, yeswanthpur near govardhan theatre, bangaluru., 560022 Bangalore, India",13.021645,77.55126,9.0,5.3
66,21coconuts inn,"khalchawada Khalcawada,Arambol, 403524 Arambol, India",15.690292999999999,73.704571,6.0,9.3
67,FabHotel Thejas Paaradise,"473, Kamaraja Road, Ramanuja Nagar Coimbatore - 641015, 641015 Coimbatore, India",11.019347,77.022821,188.0,7.7
68,OYO 37683 Second Home,"BJ-347,SECTOR-2 Salt Lake, 700091 Kolkata, India",22.58026394,88.40575933,12.0,7.1
69,plazzo,"a-337 MTNL Building Mahipalpur street number 1, Mahipalpur, 110037 New Delhi, India",28.54620576,77.12602347,313.0,8.0
70,"Relaxing 2 B/R Estate House, Deenaty, Tamil Nadu","Nianna Tea Estate, 643206 Coimbatore, India",11.469669999999999,76.798216,2.0,
71,Athiti Residency,"plot no 8, pocket-11A,Sector 22, rohini, Delhi, Rohini, 110086 New Delhi, India",28.723166,77.06029000000001,,
72,Villa De Plumeria,"Pilerne - Candolim Road, Villa A1, Greenwood Meadows Society, Next to Lady of Good Hope Church, 403515 Candolim, India",15.51767423,73.77622321,6.0,9.7
73,OYO 12148 Flyover INN,"Plot No- 4/29A, 4/29 A, Rishi Nagar, Pitampura, 110034 New Delhi, India",28.683993400000002,77.1280323,,
74,OYO 27860 Hotel Apple Tree,"193/194, Opp. Transport Bhawan, Transport Nagar, Bhawarkuan, 452014 Indore, India",22.695183,75.86258199999999,4.0,
75,Sayaji Indore,"H-1, Scheme number 54, Vijaynagar, 452010 Indore, India",22.75152208,75.88950455,137.0,8.5
76,Oceans 7 Inn,"Gaurav Vaddo, Near St. Anthony Chapel Beach Road, 403516 Calangute, India",15.53577655,73.75876257,50.0,6.7
77,"Well-Equipped 1BR Home in Santoshpur, Kolkata","B-30, B-30, Survey Park, Santoshpur, Kolkata, West Bengal, 700075 Kolkata, India",22.490269,88.393766,1.0,
78,OYO 67634 Al Kareem Guest House,"#1910 sathgalli, 'b' zone opposite to VTU college , ring road, 570019 Mysore, India",12.325539,76.6992,4.0,7.9
79,OYO 11559 Sai Villa,"P-100,SOUTH CITY 1,SECTOR 41, GURGAON, 122001 Gurgaon, India",28.456640999999998,77.05712199999999,2.0,
80,Hotel Park View,"Plot no. 45 sector 45, 160047 Chandīgarh, India",30.70765,76.7579,2.0,
81,Comfort one-bedroom Stay,"Pocket-5 Sector-22 Rohini, Delhi, Rohini, 110086 New Delhi, India",28.719461,77.06185,,
82,Bella Orion by Vista Rooms,"Bardez, 403510 Calangute, India",15.57096565,73.78184099,3.0,6.3
83,Hotel Renuka,"28-4-12, Renuka House, Yellamma Thota, Jagadamba Centre, 530020 Visakhapatnam, India",17.712964000000003,83.302358,,
84,Capital O 70272 Hotel Valley Vista,"1, Hotel Golden Heaven Landaur, Mussoorie, 248179 Mussoorie, India",30.452574,78.086555,1.0,
85,OYO 38386 Ease Inn,"306, 306,QUANTUM HOUSE U.P., Faizabad Rd, Vijaipur, Ismailganj, Kamta, Gomti Nagar, Lucknow, 227105 Lucknow, India",26.874792,81.017278,,
86,OYO 62653 A5 Inn,"9-13-45/6/3, Plot no. 6 (Off VIP Road), Vizag Co-operative House Building Society Layout, Visakhapatnam, 530003 Visakhapatnam, India",17.825338000000002,83.35226999999999,,
87,Royal Residency,"HOTEL ROYAL RESIDENCY B-3/357 SECTOR-6 ROHINI NEAR WATER TANK, Rohini, 110085 New Delhi, India",28.711896999999997,77.1112,20.0,5.5
88,Spacious 2BHK Home Pondicherry City Centre,"28, 9th Cross, Rainbow Nagar, 605008 Pondicherry, India",11.9450451,79.8266319,3.0,
89,Treebo Trend Yuvraj Aurangabad,"Plot no. 3 & 4, N-3 Cidco, Jalna road, 431001 Aurangabad, India",19.87446158,75.36044687,77.0,7.5
90,Mountain Top Holiday Home,"Hno 14, Stone Valley ,Balacola Village, Ooty, 643003 Ooty, India",11.33675353,76.67847633,12.0,9.1
91,HOTEL STAY N PAY,"Mahan Singh Gate Road BAKARWANA ROAD, 143001 Amritsar, India",31.625514000000003,74.883255,,
92,Virender Dubey,"1199 AB sector 38 Behind Medanta hospital, 122003 Gurgaon, India",28.439502,77.040834,,
93,Om Sai Beach Huts,"Agonda Beach, 403702 Agonda, India",15.04807719,73.98479819,275.0,9.0
94,OYO 3845 Hotel LiNear Inn,"Plot no.93, PU 4 ,AB Road, Behind C21 Mall, Indore (M.P.), 452010 Indore, India",22.743764000000002,75.894851,5.0,5.1
95,Treatotel,"1 L K Co Op Society, Next to Sterling Hospital, Memnagar, Ahmedabad, 380052 Ahmedabad, India",23.04944688,72.5314191,30.0,6.1
96,Treebo Trend Akshaya Mahal Inn,"5/A, Hydarali Road (Abba Road), 570007 Mysore, India",12.31764195,76.66454599,1030.0,8.4
97,Veronica Resort By The Beach,"H.No.933, Tivai Vaddo, 403516 Calangute, India",15.53785177,73.76035362,139.0,7.4
98,Fortune Murali Park Hotel,"40-1-28, M.G. Road, Lahhipet, 520010 Vijayawāda, India",16.50080622,80.64648807,50.0,6.9
99,Dreams Palm Beach Resort,"Umtta Vaddo, Near Calangute Beach Road, 403516 Calangute, India",15.54471137,73.75795037,25.0,6.4
100,OYO 11684 SIMA Hospitality,"AI 87, Newtown, Street No 23, 700156 Kolkata, India",22.578976,88.45118199999999,11.0,4.8
101,Hotel Alfa Heritage,"Shop no. 7, Ground floor, Albion Palace, Hotel Heritage Compound Opp. Gloria Church, Chani Bazar, Byculla (East), 400027 Mumbai, India",18.976039,72.834176,42.0,5.3
102,Mega Tourist Home Palarivattom,"Kunnath Lane, Ernakulam, 682025 Cochin, India",10.00443101,76.30550616,6.0,4.6
103,Capital O 45604 Hotel Om Palace,"Near HDFC Bank Sehore Naka Main Road, 462030 Bhopal, India",23.270397,77.3318886,,
104,"Hotel Star One, Delhi","A-289, National Highway No-08, Near IGI Airport, Mahipalpur, Mahipalpur, 110037 New Delhi, India",28.55025473,77.12896578,77.0,7.8
105,OYO 68227 Hotel Monty Regency,"Near Vishal Mega Mart, Kolar Road, Sarvadharma, 462042 Bhopal, India",23.18707616,77.41679996,,
106,Treebo Trip Grand Pune,"196, Opp. Vega Center, Ghorpade Peth, Swargate, 411042 Pune, India",18.500258,73.86321579999999,33.0,6.6
107,Serene Nest,"Vimson serene Apartment Dussiyurkonam road,bapuji nagar,Pongumoodu,, 695011 Trivandrum, India",8.54048288,76.92209364,2.0,
108,3-BR villa amid lush greenery,"The Only Olive, Room no. 959, Ranoi, Aldona, Goa., 403508 Aldona, India",15.597504,73.874234,2.0,
109,Well-Equipped 1BR Homestay in Coorg,"1, Near Kudumangalore grama panchayat ,kudige, 571232 Madikeri, India",12.491033999999999,75.952929,,
110,Treebo Trend Sonia,"6-A, Town Center Jalna Road, CIDCO. Aurangabad 431003, 431003 Aurangabad, India",19.87180139,75.38548514,71.0,7.4
111,Aldos Ark Home Stay,"1/1374 Opp Police Quarter. Pattalam , 682001 Cochin, India",9.96216139,76.24222040000001,109.0,9.5
112,Mission 63 Hotel,"No.63,mission Street,puducherry-01 No.63,mission Street,puducherry-01, Heritage Town, 605001 Pondicherry, India",11.940952000000001,79.832207,2.0,
113,Nirvana Villa by Vista Rooms,"Police Anvection Bhavan Back Side Badi Havala road, Rajasthan, 313001 Udaipur, India",24.6212503,73.65926453,,
114,Cozy home,"Ajmera Infinity Apartment internal Road, 560100 Bangalore, India",12.843353,77.647304,2.0,
115,Rahi Forest View,"Lingmala Road, Off. Panchgani - Mahabaleshwar Highway, Near Lingmala Waterfall,, 412806 Mahabaleshwar, India",17.93109181,73.69002426,,
116,SPOT ON 64228 Ram Palace,"old no 26, new no 138\A, J L Nehru, Inner Ring Rd, opposite Aishwarya Maha, Choolaimedu, Chennai, 600026 Chennai, India",13.06036064,80.21181196,1.0,
117,Luxury Studio Home near Pondicherry City Centre,"1, 3, 4th Cross Street Rainbow Nagar, 605004 Pondicherry, India",11.943301,79.82606899999999,1.0,
118,OYO 18680 Olivia Comforts,"2, RR Complex, Venkappa Garden, Ejipura, 560095 Bangalore, India",12.940281,77.626998,,
119,Veekay Regency,"Veekay Regency Adjacent Habitat, Railway Parallel Road, 560022 Bangalore, India",13.023245,77.55274399999999,2.0,
120,FS VILLA,"LIGHT HOUSE PEACOCK ROAD Kovalam vizhinjam po, 695521 Trivandrum, India",8.385489999999999,76.978751,6.0,7.7
121,Grand Milestone Hotel,"#2211 Mysore Madikeri Main Road Adhishwar Electro Wrold Hinkal Ring Road Signal Hinkal, 570017 Mysore, India",12.333203,76.597734,,
122,Hotel Luxor,"No 103/2 Doddathogur, Neeladri Road Electronic City Phase 1, 560100 Bangalore, India",12.8410677,77.6444345,9.0,6.1
123,Hotel Park Central Comfort- E- Suites,"Near Bund Garden Signal, Koregaon Park,, 411001 Pune, India",18.54121192,73.88708471,50.0,6.9
124,"Girls PG Rooms (Home Stay) in Sec- 15, Rohini.","F-14/14, 3rd Floor, Sector - 15, Rohini, Rohini, 110085 New Delhi, India",28.730919,77.12773100000001,,
125,Brundavan Homes,"Flat 301, La elite Apartments Kavuri Hills, Madhapur, 500081 Hyderabad, India",17.43867654,78.39072347,1.0,
126,Hotel Basant Residency,"3, 4th Main Road, Gandhinagar, 560009 Bangalore, India",12.97745775,77.57760108,32.0,6.7
127,Sooryatheeram,"Panavila, Mulloor po. TC 60/205 Sooryatheeram, 695521 Trivandrum, India",8.36648987,77.00771368,,
128,OYO 1837 Hotel Golden Meadows,"Naggar Road, 175131 Manāli, India",32.223263,77.200395,,
129,The Jazminn,"626 2nd E Cross Road, 560043 Bangalore, India",13.02029808,77.63276549,,
130,Friends clubhouse 1 beside Cafe Toto's,"opp. Cafe Toto's, 403516 Calangute, India",15.550781,73.759139,,
131,Prestige Hotel,"H.No. 463/4, AbaixaWaddo, Mapusa-Calangute Road, Canca, Bardez, 403510 Mapusa, India",15.57792655,73.79679345,21.0,8.7
132,Calangute Beach Apartments,"Bishop Alex Dias Rd Bishop Alex Dias Rd Calangute, 403516 Calangute, India",15.54364284,73.76813178,,
133,Nestlay Rooms Ambattur,"Mahatma Gandhi Road VGN shanti nagar, 600053 Chennai, India",13.10051097,80.15598044,31.0,6.8
134,Jeen Wilson's Homestay,"1/881,Near Police Quarters,Fortkochi-1, 682001 Cochin, India",9.96227532,76.2421158,34.0,8.7
135,Maravilha,"H.No.189, Mazal Vaddo, Near Central Bank, Assagao, North Goa, 403507 Assagao, India",15.597399,73.783312,15.0,9.6
136,Collection O 19986 Lotus Inn,"2, New Market, Above Punjab National Bank Near Aga Khan Children Park,Margao, 403601 Madgaon, India",15.27204389,73.96119666,,
137,OYO Home 65680 Cozy Stay Kharghar,"44, Block G, Sector 12, Kharghar, Navi Mumbai, Mumbai, 410210 Mumbai, India",19.043638,73.06905,,
138,OYO 40141 Ascot Hotel,"SRM Road,North Railway Station 2nd End Cross Road, Kochi, Ernakulam, 682018 Cochin, India",9.994894,76.28647,,
139,OYO 35563 Annapurna,"1, Khaknal, 175131 Manāli, India",32.18114724,77.19644476,,
140,Hotel Sallow (Premium),"Opp. Bus stand Kot atma singh road Near Bee Ess Gas Agency, 143001 Amritsar, India",31.631813,74.882122,3.0,
141,OYO Flagship 475 North Usman Road,"8 A, Kannaiah Street, Off North Usman Road, T.Nagar, T - Nagar, 600017 Chennai, India",13.0515,80.2349,29.0,7.1
142,GokStay,"School View Street 106, 600087 Chennai, India",13.04925331,80.18608392,52.0,7.5
143,OYO Flagship 61433 Saket Inn,"MIG-103/2-B, Saket Nagar, Habib Ganj, Bhopal, 462024 Bhopal, India",23.21642872,77.45958019,1.0,
144,Morjim Sea Waves,"House No: 791 Vithaldas Wada Morjim, Pernem, 403512 Morjim, India",15.633216000000001,73.74216,1.0,
145,OYO 5326 Jaipur Pride Inn,"C296, Janpath road,Nirman Nagar, 302019 Jaipur, India",26.888964899999998,75.7523687,,
146,Hotel Krishna Boutique Stay Jaipur,"365/73 Lions Lane West, Sirsi Road 200 Feet Bypass Rd, Jaipur, Rajasthan, 302012 Jaipur, India",26.927308,75.72994,,
147,FabExpress Mewar Darshan,"19, Panna Dhay Marg, Hatipol, 313001 Udaipur, India",24.58675223,73.6856883,5.0,3.0
148,OYO Flagship 36485 Flagship Smg Heritage,"School Block Shakarpur Khas, New Delhi-110092, Delhi, 110092 New Delhi, India",28.62518,77.276085,2.0,
149,OYO 69377 Hotel Ruby,"225, MS Ali Road, Chor Bazaar, Kamathipura, Mumbai, 400008 Mumbai, India",18.961763,72.82516,,
150,Ibis Kolkata Rajarhat,"Action Area 1, New Town 700156, 700156 Kolkata, India",22.581506,88.461337,208.0,7.8
151,Goa Rentals 4bhk Beautiful Villa In Arpora 5 mins to Baga,"Arpora Bazar, 403516 Arpora, India",15.56164965,73.76241490000001,,
152,MODAK GUEST HOUSE,"15b Gobinda Bose Lane BHOWANIPORE, 700025 Kolkata, India",22.532648000000002,88.341482,,
153,Hotel Metropole Inn,"Andheri - Kurla Road Hotel Metropole Inn,Below Western Express Highway Metro station,Andheri East,Mumbai -400093, 400093 Mumbai, India",19.111565,72.868912,137.0,7.9
154,OYO 9271 Hotel Dev Palace,"Plot No.WZ/3535,Raja Park, Mahindra Park Chowk, 110034 New Delhi, India",28.6832,77.1357,,
155,Niranta Transit Hotel Mumbai Airport,"Terminal 2 , Chhatrapati Shivaji International Airport, 400099 Mumbai, India",19.09921847,72.87538512,388.0,8.0
156,The Nest By BOHO,"Arakashan Road Corner House Opp. New Delhi Railway Station, New Delhi, Delhi, Paharganj, 110055 New Delhi, India",28.645557,77.217845,32.0,6.9
157,Hostel Vasantashram CST Mumbai,"232 Narasinh Mansion, L T Marg, Crawford Market, Opp Police Commissioner's Office , 400002 Mumbai, India",18.94682073,72.83260703,83.0,7.8
158,OYO 62468 Chandradeep,"Sector 2, Sector 6, Vidyadhar Nagar, 302039 Jaipur, India",26.96603631,75.77837795,,
159,Relax Guest House,"09/11, syed mukhri street, katha bazar, masjid bunder(w), Mumbai - 400003, 400003 Mumbai, India",18.95083492,72.8379219,70.0,6.2
160,SJ Holidays Goa Resort,"Khalcha Wada Road Arambol Goa, 403519 Old Goa, India",15.688947,73.703091,,
161,moroccan riad@hkv,"Hauz Khas Tank 51a hauz khas village, Hauz Khas, 110016 New Delhi, India",28.554678999999997,77.1938598,2.0,
162,OYO 9008 Hotel Pearl Inn,"4/112, Vishesh Khand,Gomti nagar,Lucknow, Gomti Nagar, 221010 Lucknow, India",26.8617,81.0172,3.0,6.6
163,galaxy,"kh339 road no-1 mahipalpur new delhi, Mahipalpur, 110037 New Delhi, India",28.546915000000002,77.126543,,
164,Valley View Resort,"3/104, Tabra Vaddo, Salligao , Bardez, Goa, 403511 Old Goa, India",15.55388,73.80073399999999,,
165,OYO 14211 Laxmi Palace,"Hotel Laxmi Palace, 4th Floor, Laxmi Villa Two Complex , Near Hari Darshan Char Rasta, Opp Shalby Hospital, New Naroda, 382330 Ahmedabad, India",23.069807,72.675117,2.0,
166,Amara Vacanza Grand Inn,"Near St. Alex Church, Naika Vaddo, Calangute, Bardez, 403516 Calangute, India",15.54004821,73.76703719,39.0,7.2
167,Mango Tree Courtyard,"33 Tilak Road (Behind Bochica; across from Women’s Era), Paltan Bazaar, 248001 Dehradun, India",30.32297227,78.03296479,19.0,9.6
168,OYO 474 Hotel VM Residency,"50 Main Road Masoodpur Vasant Kunj New Delhi, 110070 New Delhi, India",28.526251000000002,77.15346,21.0,6.5
169,2BHK Duplex in Pondicherry,"Jameyth Nagar Kottakuppam, Pondicherry, 605104 Pondicherry, India",11.969282000000002,79.831068,,
170,Capital O 68890 Living Hub,"1482, Huda Colony, Sector 46, 122018 Gurgaon, India",28.429543,77.058949,,
171,Novotel Pune Viman Nagar Road,"Weikfield IT City Infopark, Survey No. 30/3, Ramwadi, Viman Nagar, 411014 Pune, India",18.55887913,73.91090333,605.0,8.1
172,Furnished AC Apartments Near Kims Hospital-Opp Lulu Mall,"Oruvathilkotta, Aakkulam, Thiruvananthapuram, Kerala, 695029 Trivandrum, India",8.51836383,76.89833449,1.0,
173,Dzire Inn,"Kulri, Mall Road, Survey Colony, Mussoorie, Uttarakhand 248179, 248179 Mussoorie, India",30.455175,78.081158,,
174,Hotel Downtown Suites,"32, The Mall, Central Mall Building, Amritsar, Punjab 143001, 143001 Amritsar, India",31.64266169,74.86297783,3.0,
175,WelcomHotel Chennai-Member ITC Hotel Group,"Cathedral Raod, Chennai City Center, 600086 Chennai, India",13.04558237,80.25742739,387.0,8.5
176,Kapila Gateway,"Lingmala Society, Next to Hotel Sumanraj Before Veena Lake, 412806 Mahabaleshwar, India",17.935385,73.673117,2.0,
177,OYO Townhouse 027 Sector 15 Gurgaon,"691, Sector 15, Part II, Behind Google Building, 122001 Gurgaon, India",28.460632,77.04844090000002,21.0,8.5
178,THE MEADOW,"CHOTTANIKARA - VENNIKULAM ROAD THIRUVANKULAM, ERNAKULAM, 682305 Cochin, India",9.93951362,76.38970502,,
179,Lavish 1BR Stay in Kasheli,"Puranik Villa31, Swaraj Nagar, Near Kasheli Toll Naka, Kasheli, Mumbai, 421302 Mumbai, India",19.239418,73.01443,,
180,Vividus,"#3 Kumarakrupa Road Madhav Nagar, 560001 Bangalore, India",12.984668,77.578344,607.0,8.9
181,Coorg Nature's park,"State Highway 88 7th Hosakote post coorg, 571237 Suntikoppa, India",12.418691,75.87716999999999,,
182,Capital O 13722 hotel walnut inn,"10, Dehradun Mussorie road, near kothalgate chowk, 248002 Dehradun, India",30.40494342,78.08261242,4.0,
183,Treebo Tryst The Pavilion,"Plot No 347 P. K. Salve Road, Kingsway, Behind Tanishq Showroom,Near Railway Station,Mohan Nagar, 440001 Nagpur, India",21.158132000000002,79.084342,,
184,OYO 22558 Hotel Karan International,"Kunal Garden, 443 matalwadi phata Panshet Road, Gorhe Khurd, 411025 Pune, India",18.40374768,73.74300007,1.0,
185,TGL Resort & Spa Mahabaleshwar,"Panchgani - Mahabaleshwar Road, At-Post-Met-Gutad, 412806 Mahabaleshwar, India",17.92634104,73.69555095,50.0,7.6
186,Spacious 1BR Apartment near Kochi Airport,"No. XIV/188, Nedumbassery, Nayathod., Kochi, 683572 Cochin, India",10.163236999999999,76.40693,,
187,Well-Equipped Abode in Kolkatta,"Diamond Harbour Road, Silpara, Purba Barisha, Kolkata, West Bengal, Kolkata, 700008 Kolkata, India",22.475525,88.31055500000001,,
188,OYO 47645 Hotel Sai Vinayak Boarding And Lodging,"Regimental Bazaar, Shivaji Nagar, Secunderabad, Hyderabad, Secunderabad, 500003 Hyderabad, India",17.436586,78.50061,,
189,Hotel Bright Heritage,"Tower Road, 682001 Cochin, India",9.96672279,76.2449287,,
190,SPOT ON 66407 Hotel Meat Lovers,"88,89, Patel Nagar, Near Siwar Mod,Sirsi Rd, Jaipur, 302012 Jaipur, India",26.917513,75.64393000000001,,
191,Hotel GM Plaza,"#18, 6th Cross, Gandhi Nagar, 560009 Bangalore, India",12.979026,77.578183,1.0,
192,OYO 41019 Nellimani Home Stay,"Madikeri - Murnad Rd, Coorg, 571252 Madikeri, India",12.391472,75.74628,,
193,2BHK Classic Homestay in Kochi,"Thazhvaram Lane, Echamuku, Kunnumpuram, Thrikkakara, Vazhakkala, Kakkanad., Kochi, 682021 Cochin, India",10.017093,76.340546,,
194,Ashok Deluxe Apartments,"Ashok Nagar Bldg No.3 Opp Marol Military Road, Near Raj Oil Mill, Marol, Andheri (E), 400072 Mumbai, India",19.11658159,72.8869045,34.0,6.9
195,"4-BHK in a gated community, near Gurgaon Railway Station","T-1 G03, Satya The Hermitage, Sector-103 Gurgaon, Haryana, 122001, 122001 Gurgaon, India",28.50742,77.00868,3.0,9.3
196,Avatar Living @ Gk2,"G-18 , 3rd floor ,Greater Kailash 2, 110048 New Delhi, India",28.53654215,77.23750896,67.0,9.6
197,SPOT ON 38215 Hotel Shivalya,"6, Karoran Rd, Nayagaon., 133301 Chandīgarh, India",30.774964699999998,76.7965985,6.0,2.8
198,HOTEL SETU SHARMA,"HOTEL SETU SHARMA R-10 CHARBAGH, 226004 Lucknow, India",26.832721999999997,80.922476,1.0,
199,The Fort Villa,"Uthandi Toll Plaza No. 2/122, Bharathi Street, near PVR CINEMAS Playhouse, 600119 Chennai, India",12.86465201,80.24197172,,
200,Raposo Holiday Resort,"HNO 6 45/2 Vagator Beach Road, Badem, Assagao, Bardez, Goa Assagao, Goa 403507, 403507 Vagator, India",15.603931,73.755152,3.0,
201,SPOT ON 47779 Thirugnanasamandham Rooms SPOT,"Kamarajar salai , periyasekkadu, Chennai, 600051 Chennai, India",13.164253,80.255502,,
202,Oman House,"Near Aster Medcity,Behind Malabar Hotel,Container Road,Kothad, 682027 Cochin, India",10.04963472,76.27702475,54.0,8.3
203,Sai Residency Goa ( Baga Beach ),"7/169A, Saunta Vaddo, Baga Beach, Bardez, Goa - 403416. opp to tito's lane, 403516 Old Goa, India",15.556529000000001,73.754037,4.0,5.6
204,HOTEL AK PALACE,"OPP GATE NO-3,BEHIND KALPANA TRAVELS,FATEHSINGH MARKET,JAIPUR,302001, 302001 Jaipur, India",26.921588,75.79767700000001,,
205,Lake Heights Home Stay,"49, Naga Nagri, Out Side Chandpole Udaipur (Raj.), 313001 Udaipur, India",24.578723,73.67887900000001,,
206,Hotel Archana Inn,"Near Durbar Hall Ground, Off MG Road, Kochi, Ernakulam, 682016 Cochin, India",9.96805809,76.28458321,127.0,7.9
207,Savoy Suites Manesar,"R-75,Sector1,IMT Manesar,Gurgaon, IMT Manesar, 122051 Gurgaon, India",28.36666778,76.94392861,20.0,7.5
208,AVR Farm house,"No. 48, 49 Abdul Kalam 3rd St, Kanathur, Reddy Kuppam near mayajal theatre near mayajal, 600119 Chennai, India",12.84467661,80.23804255,,
209,Orchid Suites,"A-55 Sector-50 Noida, 201301 Noida, India",28.569987,77.362142,,
210,Atlaantic Inn,"#140,Opposite Palace Ground(Fun world,Snow city) J C Nagar, 560006 Bangalore, India",13.00606144,77.59334564,187.0,6.5
211,Collection O 40640 Excel In,"E16, BLOCK E, NARAINA VIHAR, NEXT TO DOMINOS,, Delhi, 110028 New Delhi, India",28.631077,77.1384,,
212,"Luxury apartment, 3BHK, Jaipur Centre","Rajendra Marg, Bapu Nagar, Near Birla Mandir Golden Jewel Apartments, 302015 Jaipur, India",26.89226633,75.81122324,,
213,Art Prive,"103/12, Ourem Road, Behind Art Resort Goa, South Palolem Beach, Canacona, 403702 Palolem, India",15.00708763,74.02661793,78.0,9.3
214,Team Vihaan,"Plot 72, Jayabheri Four Seasons Gowlidoddi, 500075 Hyderabad, India",17.430463,78.324998,1.0,
215,Capital O 60582 Hotel Seven Hills,"Millenium Plaza, New T2 Airport Link Road, Near Sakinaka, Telephone Exchange, Andheri East, Mumbai, 400059 Mumbai, India",19.100154999999997,72.88126,12.0,6.1
216,The Mid Town,"Plot No 3, M.L.A. Quarters Road, Near, Rang Mahal Chowk, TT Nagar, Bhopal, Madhya Pradesh, 462003 Bhopal, India",23.235707,77.397539,,
217,Collection O 42378 Viraj Khand,"Viraj Khand, Viraj Khand, Gomti Nagar, Lucknow, Lucknow, Gomti Nagar, 226010 Lucknow, India",26.851090000000003,81.02606999999999,,
218,Treebo Trend Platinum Inn & Suites,"154/155, Guru Nank Bhawan, near Golden Temple Parking Bridge, 143001 Amritsar, India",31.628715999999997,74.884963,,
219,SPOT ON 45378 Chaman Lodge,"mechanic nagar near apple hospital , bhawarkua, 452001 Indore, India",22.694323,75.8612916,2.0,
220,OYO 47347 Home Airport Suites 904,"Lord Krishna Flats, Vappalassery PO, Nedumbassery, Kochi, 683571 Cochin, India",10.164663000000001,76.38654,,
221,Ranis Grand,"Railway station, 641018 Coimbatore, India",10.99637889,76.968171,31.0,7.4
222,Ocean Shores Hospitality,"Aqua Terraz, Apt No-302, Reis Magos Verem Road, Next To VMP School, 403114 Candolim, India",15.5055549,73.81044824,25.0,8.6
223,Japika Inn,"Japika Inn Log Huts Area, Manali, Old Manali, 175131 Manāli, India",32.250632,77.18101300000001,3.0,
224,Collection O 136 Gomti Nagar,"2/199, 2/199, Vishal Khand 2, Vishal Khand, Gomti Nagar, Gomti Nagar, 226010 Lucknow, India",26.85081872,80.98292995,,
225,Grand Hyatt Mumbai Hotel and Residences,"Off Western Express Highway Santacruz (E), Santacruz, 400055 Mumbai, India",19.07679564,72.85124034,1273.0,8.5
226,Lake-Side Studio Home in Madikeri,"1, Hardhoor Village, Near Harangi Backwaters, Suntikoppa, 571237 Jambur, India",12.49247132,75.82953975,,
227,OYO 23304 Hotel Shiva,"10, GS Road ullubari, 781007 Guwahati, India",26.167663,91.764983,3.0,6.1
228,Hotel Udai Palace,"Agrasen Nagar, Udaipole, 313001 Udaipur, India",24.57511665,73.69921267,24.0,7.2
229,Standard 1BHK near Pondicherry City Centre,"1, No 96 & 97, Main Street, Lalitha Nagar, Opp Aravindar Hospital, Thavalakuppam, 605007 Pondicherry, India",11.862591,79.79411800000001,1.0,
230,Villa Samaara 2,"Villa 4, Solitude Villas, 403515 Candolim, India",15.53795341,73.76576899999999,,
231,A one home stay,"Hathi gate katra moti ram, 143001 Amritsar, India",31.627226,74.870676,,
232,"Mountain View 2BHK Home near Mysore Road, Ooty","Daffodils Hospitality Services, No-447,Misty Wood Colony, Near Fern Hill Palace, Fern Hill, 643004 Ooty, India",11.399185000000001,76.685402,1.0,
233,The Park Bangalore,"14/7, Mahatma Gandhi Road, 560042 Bangalore, India",12.97390832,77.61960983,428.0,7.8
234,OYO 14778 G R Hospitality,"DD 301, Narayantala East, Kestopur, 700059 Kolkata, India",22.60772,88.427104,2.0,
235,Belmonte Cottage,"Tiger Hill Road, Mel Thalaiyattimund,, 643001 Ooty, India",11.40429359,76.72297028,,
236,OYO 61622 Classic Hotel,"S/F KALE KHAN, NEAR UNDERPASS SOUTH, Delhi, 110013 New Delhi, India",28.586721,77.253334,6.0,2.5
237,Mussoorie Camp Resort,"Village- Nautha, Kempty-Thatyur Road, Kempty, Mussoorie, 249810 Mussoorie, India",30.48371216,78.05607105,4.0,9.2
238,Dream Nawabi Place,"C-2057/5 Near Shivaji Market Indira Nagar, 226016 Lucknow, India",26.880001300000004,80.9870102,,
239,EXECUTIVE BUNGLOW,"wilson point road ,mahabaleshwar, 412806 Mahabaleshwar, India",17.920367000000002,73.675312,,
240,OYO 19590 Hotel Kamal,"0, Kamal Chambers,27,Dhobi steet,Opp Ruhani Resturant,Mohammed Ali road, 400003 Mumbai, India",18.951925,72.834838,6.0,4.9
241,Jehan Numa Retreat Club & Spa,"Dr. Saleem Ali Road Near Van Vihar Prempura, 462002 Bhopal, India",23.21798801,77.37156719,18.0,9.1
242,"Elegant 1BR Stay in Burwa, Manali","Burwa Road, Burwa, Manali, 175131 Manāli, India",32.290061699999995,77.1721688,,
243,Lively 1BHK Homestay in Kochi,"Reju Joseph Apartment, Kakkanad, 682037 Cochin, India",10.008836,76.333733,,
244,Treebo Trend Sekaran,"No 14/15, MGR Salai, 600096 Chennai, India",12.96449393,80.24614932,52.0,7.8
245,OYO 36961 Kiruba Castle,"6, Krish homesNo 6,7,8 Manohar Nagar 15th StPallikaraninext to IIT Colony park, Chennai, 600100 Chennai, India",12.937352,80.210684,,
246,Joyrooms,"K-60, Indira Gandhi International Airport Mahipalpur, WTI Hotels, 110037 New Delhi, India",28.55817505,77.09952657,13.0,6.4
247,Capital O 64120 Sector 58,"Sector 58, Noida, 201301 Noida, India",28.609362,77.35493000000001,,
248,OYO 29085 Global Bay Villas And Resort,"45, Kovalam Beach Rd, 603112 Chennai, India",12.78984871,80.25033452,,
249,Saorsa Homestay by Vista Rooms,"plot no.3 panchratan vihar badi road, 313001 Udaipur, India",24.625754999999998,73.658749,,
250,Palm Era Resorts,"Sunnadakere Road, Guddehosur, 571234 Kushālnagar, India",12.44570454,75.92013806,,
251,Sajjan Niwas,"D1/2B Via Bank Road, Behind Collectorate, Bani Park, Bani Park, 302016 Jaipur, India",26.9285364,75.79208672,246.0,8.2
252,Camp Sanfrancisco,"Sadashiv Bhatt, Opp Palolem Dental Clinic, Palolem Beach, 403703 Palolem, India",15.01020832,74.02455062,64.0,7.1
253,Hotel Nk Grand Park Airport Hotel,"#8/100-C, Shandy Road, Cantonment, Pallavaram, Pallavaram, 600043 Chennai, India",12.97084308,80.14986527,159.0,7.0
254,Hotel Malad INN,"Abrol point, 2/3rd floor, Anand road Opp Railway Station, malad (west), 400064 Mumbai, India",19.18449,72.84825,,
255,OYO Townhouse 217 The Awadh Airport,"G-7/49 Transport Nagar Phase-II, Amar Shaheed Path, Lucknow, Uttar Pradesh 226012, Lucknow, 226023 Lucknow, India",26.774265000000003,80.894775,2.0,
256,A Peaceful Stay by Paliyath House,"Puthencruz Karimughal Road Paliyath House, Vadavucode P O, 682303 Cochin, India",9.975734800000001,76.40585340000001,10.0,8.6
257,OYO Townhouse 19 Anand Vihar,"A-7, Pushpanjali Enclave, Near jain Hospital Karkardooma, 110092 New Delhi, India",28.653477600000002,77.3087901,1.0,
258,Mom Care Holiday Inn,"Porba Vaddo 555/1 Porba Vaddo Calangute Goa, 403516 Calangute, India",15.547903,73.76621999999999,,
259,OYO 9042 Hotel Jai Balaji,"Plot No. 9918, Street No.5, Multani Dhanda, Paharganj, 110055 New Delhi, India",28.6471,77.2097,8.0,4.4
260,Hotel Paulino,"Behind Hospicio Hospital Opposite B.P.S club, Pajifond, Margao, 403601 Madgaon, India",15.277654,73.960647,28.0,8.2
261,OYO 43978 Nini Residency,"GKD Nagar, Nehru Nagar West, Coimbatore, Coimbatore, 641035 Coimbatore, India",11.05206,77.0327,,
262,OYO 30504 Kanchan Inn,"Plot No-52, Tonganpur,Near Oyo Kanchan Palace, Dwarka Sector 9, Dwarka, Dwarka, 110075 New Delhi, India",28.576756,77.064978,,
263,Ganpati vishram,"197-198, near Choti Chopar Chandpole Bazar, Jaipur, 302001 Jaipur, India",26.925022,75.81740699999999,41.0,8.3
264,SOFT PETAL BED & BREAKFAST,"SECOND FLOOR, C-193, GREATER KAILASH - I, NEW DELHI, South Delhi, Delhi, 110048, Greater Kailash 1, 110048 New Delhi, India",28.549322999999998,77.236828,2.0,
265,OYO 44381 Resova Club & Resort,"Sitapur Rd, Lucknow, 226021 Lucknow, India",26.94,80.9322,1.0,
266,Castello's Coco Huts,"H.No.1313, Mazilwaddo, 403716 Benaulim, India",15.25314768,73.92106086,47.0,7.9
267,Breath Inn Homestay,"Near Service Station, Njaliparambu Jn, Fort cochi, 682001 Cochin, India",9.96310979,76.24325534,218.0,9.7
268,Aviserv Lounge,"Aviserv Lounge, Arrival Hall 2, Chhatrapati International Airport, Mumbai, Maharashtra - 400099, 400099 Mumbai, India",19.099615,72.873339,146.0,7.7
269,Natures villa 6,"varca villa 6, 403721 Madgaon, India",15.2209348,73.9290015,,
270,SPOT ON 69063 Leaf Petals Hospitality,"511/2, opp plot no. 151, phase-6, village khandsa, Sector 37, Gurgaon, 122004 Gurgaon, India",28.4358113,77.0023584,,
271,Hexa Star Residency,"Military Rd, Bhavani Nagar, Mayur Plaza Marol, Andheri East, 400059 Mumbai, India",19.119222,72.882894,13.0,6.5
272,Hotel Alwesal International,"Kohinoor Road, 571201 Madikeri, India",12.4209892,75.735376,95.0,8.0
273,Hostie Sarvada-Convenient Living in South Delhi,"S Block Greater Kailash 2 S-263, Third Floor, 110048 New Delhi, India",28.53044485,77.24620959,4.0,
274,FabHotel Talwalkars Serene Resort Panchgani-Mahabaleswar Road,"Talwalkar Resort, Bondarwadi, 412806 Mahabaleshwar, India",17.9154471,73.71938932,31.0,6.2
275,Sarovar Portico Outer Ring Road,"No. 39/5, Doddanekundi Marathahalli, Outer Ring Road, 560037 Bangalore, India",12.97076692,77.69281486,38.0,7.4
276,OYO Home 60171 Peaceful Stay Edappally,"MVFA-88, Karimakkad, Thrikkakara, Edappally, Kochi, 682024 Cochin, India",10.028784,76.3264,,
277,StaySimple Spicefarm,"Sulimalthe Village Honnavalli, Somwarpet, 571236 Somvārpet, India",12.63184044,75.87397674,44.0,9.3
278,OYO 4221 near Railway Station,"Vivekananda Lane, Behind Amrit Regency Hotel, Opposite Guwahati Maternity Home, Next to C.R.U.Building, Ulubari, 781007 Guwahati, India",26.17589618,91.75445974,4.0,7.2
279,Airport Hotel The Paramont,"RZ-108A, Road No.4, Lane No.7 Mahipalpur Ex NH-8 New Delhi, 110037 New Delhi, India",28.5187201,77.08896159999999,27.0,7.9
280,Sheperd Beach Villas & Apartments Colva,"Colva Beach Road, 403708 Colva, India",15.27638,73.91892800000001,7.0,8.2
281,Kings Cross Residency,"1/1,3rd avenue,indira nagar, Adyar, Thiruvanmiyur, 600020 Chennai, India",12.99069315,80.25590211,16.0,5.2
282,The Park Hyderabad,"22 Raj Bhavan Road,Somajiguda, 500082 Hyderabad, India",17.42341086,78.46258655,427.0,7.1
283,JJ Inn,"Bldg 31/903-B, Conventi Road , Ponnurunni, Vyttila, Ernakulam, 682019 Cochin, India",9.97439816,76.31500965,4.0,7.6
284,Grandview residency,"no 40/2, venkatesan street chepauk, Triplicane, 600005 Chennai, India",13.065008,80.277215,29.0,7.3
285,OYO 14500 Hotel Hill View Guest House,"Plot no 18, Jayabheri Pine Velly, Neat lane to Care Hospital, 500032 Hyderabad, India",17.430746,78.37095699999999,2.0,
286,Apartments With Pool In Calangute Goa,"Calangute - Mapusa Road Behind Kfc, 403516 Calangute, India",15.545570000000001,73.768011,,
287,Riva Beach Resort,"Mandrem Beach, Junaswada, 403527 Mandrem, India",15.6720516,73.70983509999999,185.0,7.0
288,Casa Zorawar Homestay by Vista Rooms,"Plot No S-4 Hanuman Nagar , Khatipura Jaipur , 302021 Jaipur, India",26.92176775,75.74465871,16.0,10.0
289,Hotel Aiswarya,"Off MG Road, Opp. Lotus Club, Warriam Road, Ernakulam, Ernakulam, 682016 Cochin, India",9.96763542,76.28485143,176.0,7.8
290,Keerthi Arthi Apartment,"Bharathi Nagar main Road Keerthi Arthi Apartment,(Near ECR ByPass Rountana), 605104 Pondicherry, India",11.961485,79.831192,2.0,
291,Casa Sanfrancisco Guest House,"palolem beach street opp.palolem dental clinc, palolem beach canacona goa, 403702 Palolem, India",15.01136268,74.02523696,59.0,7.2
292,FabExpress Bharat International,"# 1, Anandhan Street, Off North Usman Road, T.Nagar, T - Nagar, 600017 Chennai, India",13.0453779,80.23200998,,
293,Hotel Varsha Inn by The Leaf,"Plot No.33, Town Center Cidco, 431001 Aurangabad, India",19.87791,75.361302,2.0,
294,OYO 37952 Dishika Cottage,"1, Near Hampta Check Post, Prini, 175143 Manāli, India",32.22370208,77.19590865,,
295,Treebo Trend Singh Sons Karol Bagh,"7A/10, W.E.A Channa Market, Near Channa Market- Second Circle, Karol Bagh, New Delhi, Delhi 110005, Karol bagh, 110005 New Delhi, India",28.64648972,77.18346119,85.0,6.7
296,Maggies Resort,"Holiday Street h.no.235maggies resort gaura vaddo calangute goa 403516, 403516 Panaji, India",15.533254999999999,73.763302,1.0,
297,OYO 26796 Nikunj Bed & Breakfast,"Ahata Thakur Dass Sarai Rohilla, Karol bagh, 110005 New Delhi, India",28.662278000000004,77.184511,1.0,
298,Hotel Gurbachan Castle,"Golden Temple Rd, Katra Ahluwalia, Amritsar, Punjab, 143001 Amritsar, India",31.62391,74.879426,1.0,
299,"Zone By The Park, ORR, Chennai","430, Viduthalai Nagar, Outer ring road, Kovilambakkam(Near Kamakshi Hospital), 600117 Chennai, India",12.94891482,80.19932359,144.0,7.4
300,Oriental Palace Resorts,"MAIN RAOD,SUBHASH NAGAR OPP B N COLLAGE , UDAIPUR, 313001 Udaipur, India",24.580438,73.71831,16.0,6.4
301,Daspalla Executive Court,"Near Raghavendra Swamy Temple, Waltair Main Road, 530002 Visakhapatnam, India",17.71448492,83.30550402,15.0,7.7
302,Hotel the Royal's,"Near Suyog Nisarg Society Wagholi Road Pune International Airport Area, Lohegaon, 411047 Pune, India",18.594109,73.938356,7.0,7.8
303,Hotel Rigwa International,"Opposite Gangtok Groove,M.G Marg Above Star Cinema Hall,Gangtok,East Sikkim, 737101 Gangtok, India",27.326107,88.611954,1.0,
304,OYO 7578 Hotel Luck Residency,"Plot No. A 392-1,Road No 1, Mahipalpur, 110037 New Delhi, India",28.546711,77.126949,425.0,6.8
305,Hotel The Leaf,"G-38, MGM Road, Beside HPCL Office, 431001 Aurangabad, India",19.87817207,75.36025643,4.0,
306,SPOT ON 67776 Hotel Krishna,"Care of Hotel Krishna, near jain mandir, Ahirpura, Mangalwara, 462001 Bhopal, India",23.259895999999998,77.40558399999999,,
307,OYO 64671 Royal Aqua,"Next to yamaha showroom, Opp nityan Hotel, Andheri ghatkopar link road , Andheri East, Mumbai, 400072 Mumbai, India",19.097622,72.89357,,
308,Hotel Sunstar Heritage,"8A/43, W.E.A. Channa Market, Karol Bagh, New Delhi , Karol bagh, 110005 New Delhi, India",28.64523273,77.18305752,636.0,8.2
309,Hotel Maharana Inn Chembur,"Hotel Maharana Inn, V.N.Purav Marg Chembur Naka Mumbai, 400071 Mumbai, India",19.05377773,72.89523393,49.0,7.0
310,Hotel The Space,"24, City Station Road, Surajpole, 313001 Udaipur, India",24.57814626,73.69684673,,
311,OYO 30193 Shourya Residency,"Swami Vivekanand square, Sabji Mandi, Ashoka Garden,Near M.P. Nagar, Bhopal, 462023 Bhopal, India",23.256992,77.430214,,
312,Capital O 67699 Hotel Prem Ratna,"Kawali Road, Near Railway Station, 248001 Dehradun, India",30.32096114,78.02358303,,
313,Spring Field Billets,"67/596-A, Near North Railway Station St.Benedict Road, Ernakulam North, Ernakulam, 682018 Cochin, India",9.99165811,76.28511676,125.0,8.1
314,Devasthali - The Valley of Gods,"Village Issorcim, Hollant Beach, 403712 Bogmalo, India",15.37281378,73.85391712,82.0,6.5
315,OYO 15148 Sky Pix,"3, sky pix, Mancholai 3rd St, Defence Colony, 600032 Chennai, India",13.02750215,80.20267066,12.0,6.6
316,KV Residency,"270/271, 3rd Street, Gandhipuram, 641012 Coimbatore, India",11.019693,76.96804494,11.0,6.8
317,OYO 805 near Panaji Market,"Municipal Gardens (East), Church Square, Panjim, 403001 Old Goa, India",15.499344,73.82873959999999,8.0,5.0
318,OYO 14926 AK residency,"A-60, Amanishah Road, Opp. Bank of Baroda, Shastri Nagar, Jaipur, 302017 Jaipur, India",26.94823758,75.79666475,1.0,
319,OYO 70019 Hotel Bhartia Guest House,"3439,, Desh Bandhu Gupta Rd, dariba pan, Paharganj, Delhi, Paharganj, 110055 New Delhi, India",28.643967,77.21619399999999,,
320,The Promenade,"23, Goubert Avenue, White Town, 605001 Pondicherry, India",11.933169699999999,79.83576179,406.0,7.7
321,Treebo Trip Aditya Harsha,"Plot No. 4, Sri Harsha Buildings, Vinayakanagar, Gachibowli, 500032 Hyderabad, India",17.443093,78.354588,87.0,6.8
322,URBUN FIESTA THE CLUB,"Jagatipota, Kolkata, West Bengal 700099 76A ,URBUN SABUJAYAN, 700099 Kolkata, India",22.499394,88.41351800000001,,
323,Alsisar Haveli - Heritage Hotel,"Alsisar Haveli, Sansar Chandra Road, 302001 Jaipur, India",26.92278737,75.80474138,762.0,8.7
324,Hotel Casa Fortuna,"234/1, A. J. C. Bose Road, 700020 Kolkata, India",22.541203699999997,88.35247993,121.0,7.4
325,"Elegant 3BHK Stay, Serenity Beach, Auroville","1, Harith Apartment, Old Madras Street, Kottakuppam, 605104 Pondicherry, India",11.970352,79.840544,,
326,Royale Lalit Hotel Jaipur,"101, Rathore Nagar, Queens Road, Amrapali Marg, Vaishali Nagar, , 302021 Jaipur, India",26.91133896,75.7520923,14.0,7.4
327,The Serenity House,"Opposite Bank of India, Verem - Nerul Road Flat No - F1 Second Floor Nerul-Serene Building, 403114 Nerul, India",15.508370999999999,73.79554300000001,,
328,YMCA International House,"18 YMCA Road Mumbai Central, 400008 Mumbai, India",18.9721375,72.82352970000001,426.0,8.1
329,Social Rehab,"No. 273 Monalisa Apartment 100 feet road Indiranagar, 560038 Bangalore, India",12.97378025,77.64101923,122.0,7.8
330,Hotel Kemps Corner,"131, August Kranti Marg, Near Pedder Road Flyover Bridge, Kemps Corner, Kemps Corner, 400036 Mumbai, India",18.96415946,72.80629724,126.0,7.7
331,Hotel Crown Imperial,"91 Bijwasan Road, Kapashera, 110037 New Delhi, India",28.531117,77.085273,,
332,Hotel Lake Star,"80, Naga Nagri, Near Leela Palace, Outside Chandpole, Hanuman Ghat Area, 313001 Udaipur, India",24.57873461,73.67877156,296.0,8.4
333,Jr Guest Home Hotel Coimbatore - near Codissia,"198 GRG NAGAR,CODISSIA TRADE FAIR COMPLEX ROAD,AERODOME POST,SITRA COIMBATORE - 641014, 641014 Coimbatore, India",11.04008209,77.03095649,6.0,9.7
334,Villa Archela,"No 1, St Francis Assisi Street Kurusukuppam, 605012 Pondicherry, India",11.943662,79.836219,6.0,8.0
335,OYO Townhouse 115 Patel Nagar,"Main Patel Rd, West Patel Nagar, Shadipur, Delhi, 110008 New Delhi, India",28.649634999999996,77.16189,,
336,Hotel Vrisa,"12, Airport Plaza, Durgapura, Tonk Road, 302018 Jaipur, India",26.84363552,75.79463558,18.0,7.9
337,"Cozy 1BR Stay on Mall Road, Manali","Home Cozy Studio, Neelpritam Home Stay, Mall Road, Behind SBI Bank, Manali, 175131 Manāli, India",32.241506,77.188826,,
338,Oasis House,"196, Gandhi Path, Vaishali Nagar, Opposite Utsav Marriage Garden ,Jaipur, 302021 Jaipur, India",26.90530347,75.74603795,7.0,9.3
339,Kochi Inn,"May 1st Road May first Road, Ernakulam, 682032 Cochin, India",9.983138,76.307486,23.0,8.2
340,SPOT ON 41554 Hotel Sri Thirumala Paradise,"TCM Royan Rd, Subhash Nagar, Sevashrama, Bangalore, 560053 Bangalore, India",12.97245377,77.56901801,25.0,5.5
341,OYO 16014 Hotel Perfect Palace," A-50, , Road No 4,Mahipalpur Extension-Near IGI Airport, Mahipalpur, 110037 New Delhi, India",28.549395,77.13,,
342,Serene 2BHK Homestay in Pondicherry City Centre,"10, Keerthana Apts Thavalakuppam, 605007 Pondicherry, India",11.8703767,79.796345,,
343,Elegant 1BR Stay in Kukatapally,"Plot No: 53,54, Hyderabad, 500085 Hyderabad, India",17.48704,78.38424,1.0,
344,Quiet home villas,"No:53/15 Rajiv nagar,China mudaliar chavady,kottakuppam, 605104 Pondicherry, India",11.977867,79.842148,2.0,
345,PRESTIGE RESIDENCY,"General Thimmiyya Road, Madikeri Kodagu, Karnataka, 571201 Madikeri, India",12.42109,75.74199,,
346,Peaberry-A Nature Boutique Hotel,"Kedkal Suntikoppa, 571237 Suntikoppa, India",12.436971,75.798917,2.0,
347,"Shivam Paying Guest House,U","19, Unto ka karkhana, Bhattiyani Chohatta, City Palace Rd, Rao Ji Ka Hata,, 313001 Udaipur, India",24.577083,73.686319,8.0,5.9
348,OYO 48522 Gupta Residency,"Block A, Sheetla Colony, Ashok Vihar Phase II, 122001 Gurgaon, India",28.480318199999996,77.03413758,,
349,HOTEL KRISHANA DX,"Basant Road 5589 G/F F/F BASANT ROAD, MAIN BASANT ROAD BARA HINDU ROAD NEAR KHAN DEG WALA, Paharganj, 110055 New Delhi, India",28.640548,77.21714,13.0,4.8
350,OYO 11054 Amar Raj Guest House,"DE-40, Street 318, New Town, 700156 Kolkata, India",22.5721984,88.4730405,13.0,7.2
351,Tranquility Cottage Resorts,"Near Baga Bridge, Baga, Bardez Goa, 403516 Baga, India",15.56535714,73.74954059999999,85.0,8.3
352,mary's cottages,"hadimba road 1 km from mall raod, 175131 Manāli, India",32.245915000000004,77.182437,26.0,9.1
353,Lemon Tree Hotel Hinjewadi Pune,"P4, Rajiv Gandhi Infotech Park, Phase I, Hinjawadi, 411057 Pune, India",18.585433300000002,73.73418063,114.0,7.3
354,SPOT ON 47624 Motel Welcome,"karoran road naya goan opp. forest hill resort, Nayagaon, 160103 Chandīgarh, India",30.784672999999998,76.809629,,
355,Joe And Marietta's B&B Guesthouse,"H. No 2/233A, Bishop Alex Dias Road Naika Vaddo, 403516 Calangute, India",15.54480041,73.76719594,32.0,8.6
356,Smart Villa by Royal Collection Hotels,"M-11A/1, Dlf City Phase-II, Behind Dlf Square Building, NH-8, 122022 Gurgaon, India",28.49067945,77.08498335,,
357,OYO 31118 Metro View,"A 4, K.K Shopping Complex, Dwarka Mor, Bhagwati Garden, 110059 New Delhi, India",28.620000199999996,77.0329038,,
358,Vivanta Guwahati,"613, Mahapurush Srimanta Sankardev Road, Khanapara, 781022 Guwahati, India",26.12480253,91.81787789,380.0,8.9
359,Treebo Trip Guru,"15 A, 2nd Rd, beside Railway Station, Khar, Ram Krishna Nagar, Khar West, Khar, 400052 Mumbai, India",19.071451999999997,72.839715,,
360,Bhagwati farms,"2RG5 LAXMINARYANPURA, 303805 Jaipur, India",27.019865999999997,75.79819,,
361,Treebo Tryst Royal Garden,"Juhu Tara Road, , Juhu, 400049 Mumbai, India",19.08945447,72.82761008,561.0,7.9
362,Hotel Aloka Residency,"Block-ED,Plot-18,2012 Rajdanga main road, 700107 Kolkata, India",22.512320000000003,88.395073,,
363,Bliss Stays,"2nd Cross Road, 560095 Bangalore, India",12.934602,77.618902,2.0,
364,Hotel New SS Residency,"Hotel New SS Residency, Chowk Regent, Katra Sher Singh, Amritsar, 143001 Amritsar, India",31.62927682,74.87404704,12.0,5.5
365,OYO 26655 Dr Guest House,"5, Sarhadi Complex, Near Railway Station ,Opp. Canal Office, 143001 Amritsar, India",31.634180999999998,74.864203,1.0,
366,Whispering Windows,"Gandhi Chowk Library Road, The Mall Road, 248179 Mussoorie, India",30.46008539,78.06559123,2.0,
367,Collection O 30083 The Sapphire Comfort Hotel,"2, Opposite Kadamba Bus Terminus, Margao Panjim Highway, Madel, Margao, 403601 Madgaon, India",15.287679,73.954915,2.0,
368,1BR Elegant Hideout in Goa,"Miramar, Panajim., Goa, 403001 Panaji, India",15.487136999999999,73.810926,,
369,Cosy 1BR Home in Saket (Select Citywalk-3.4 km),"A1/23 Freedom Fighters Enclave, Delhi, 110062 New Delhi, India",28.510906,77.20298000000001,1.0,
370,OYO 27640 Hotel Blue Sapphire Residency,"Hotel Blue Sapphire Residency , Near The Crescent Business Park,Sakinaka Telephone Exchange Lane, Sakinaka, Mumbai, 123456 Mumbai, India",19.098622,72.881124,6.0,3.6
371,nandan van farm house no 8,"Farm house no 8 Parswnath farm villa opposite keasariya balam restaurant NH76 debari to sukher gram dhinkli, 313001 Udaipur, India",24.62030173,73.76998940000001,8.0,9.7
372,Casa Portuguesa near Vagator Beach,"Near Mango Tree Restaurant, Mapusa- Vagator Beach Road, 403509 Vagator, India",15.60065874,73.75192724,3.0,
373,Fern's Farm Cottage | Rural living with AC & WiFi,"Mudda Vaddo, 403511 Saligao, India",15.552129,73.793953,,
374,OYO Home 60382 Elegant Reaz Apartments 1br,"Vazhakkala - Kakkanad, Kochi, 682021 Cochin, India",10.010913,76.328415,,
375,"Serene 1BHK Home in Baga, Goa","G1, Relax holiday homes, Arpora, 403519 Arpora, India",15.569848,73.769207,,
376,European Standard Boutique Studio (LOTUS ),"Felix Hospital Road Ajnara Elements, 201305 Noida, India",28.506981,77.408,,
377,Sea View Resorts,"39 Bogmalo Beach Road, Galliant, 403801 Bogmalo, India",15.37679107,73.84145309,44.0,5.4
378,Holiday Inn Kolkata Airport,"Biswa Bangla Road, Rajarhat, Near City Centre 2 , 700136 Kolkata, India",22.623186999999998,88.44337900000001,615.0,8.1
379,OYO 49021 Hotel R. S. Residency Saver,"Opp. Aggarwal Hospital, Purani Lakkar Mandi Rd, Inside SultanWind Gate, Amritsar, 143001 Amritsar, India",31.62048,74.88218,,
380,Lavish Stay in Pune,"Enzigma HQ2 Ln, Veerbhadra Nagar, Baner, Pune, Pune, 411045 Pune, India",18.565268,73.770744,,
381,Araliayas Resort,"Udaipur Jhadol Road, Near Nai Gaon, 313001 Udaipur, India",24.54432837,73.64426158,8.0,7.6
382,OYO 37946 Hotel Sky Blue,"Rd Number 11, Avenue 4, Banjara Hills, Hyderabad., Hyderabad, Banjara Hills, 500034 Hyderabad, India",17.413223000000002,78.44894000000001,,
383,OYO 22591 53A SRJ Inn,"NA, Picnic Garden, Tiljala, Kolkata, West Bengal 700039, India, 700039 Kolkata, India",22.53057196,88.3815923,1.0,
384,Lake face,"94, Chandpole Udaipur, 313001 Udaipur, India",24.58319708,73.68241454,156.0,9.1
385,Sugar Plum Macedo Palms,"Villa F9 & F10, Quirla, Saunta Vaddo, Opp La Calypso Casino, 403516 Baga, India",15.56127305,73.75330478,10.0,6.5
386,Joets Guesthouse,"Ballichal Ward, 403806 Bogmalo, India",15.37080896,73.83266346,46.0,8.6
387,Olive Service Apartments - Defence Colony,"A-454 Defence Colony, 110024 New Delhi, India",28.57510724,77.23243028,49.0,8.9
388,D'aggies Comfort,"Behind Star Beach Resort Colva Goa, 403708 Colva, India",15.275098000000002,73.916785,,
389,Blue Heaven,"466 masjid road mahabaleshwar near SBI bank, 412806 Mahabaleshwar, India",17.930729,73.647734,,
390,Raj Mahal Hotel,"Tekdi Road, Manas Chowk, sitabuldi, Nagpur, 440012 Nagpur, India",21.14547433,79.08756137,15.0,5.5
391,Ezilla,"Ariyankuppam manavely pondicherry Pondicherry, 605007 Pondicherry, India",11.888881,79.806315,9.0,8.1
392,SPOT ON 38752 Pearl Imperial SPOT,"Sector 72, Noida, 201301 Noida, India",28.587057,77.377945,,
393,OYO Home 64493 Modern Stay Kalamassery,"Alenchery Villa, Thirunilath lane, South Kalamassery University PO, Kochi, 682022 Cochin, India",10.047852,76.32422,,
394,FabExpress ABC Inn,"Tower 3 - 302, Blue Ridge Society ,Hinjewadi, 411012 Pune, India",18.57575,73.73783399999999,,
395,Emerald Vista Luxury Suites,"52/5/3, behind Audi Showroom,Mumbai-Pune Banglore Highway Pashan Exit, Mohan Nagar Co-op Society, Baner Pune, 411045 Pune, India",18.548070000000003,73.77280400000001,6.0,9.1
396,OYO 852 Kings 10,"5, Opp. HMT Play Ground, Near R.T.Nagar Police Station, R.T.Nagar Main Road, R.T.Nagar, Bangalore, 560032 Bangalore, India",13.02560496,77.59287357,6.0,6.7
397,Forestvalley Holidays,"Mangalore-Mysore Highway Thalathmane, Katakeri village, Madikeri, 571201 Madikeri, India",12.41008126,75.73455602,26.0,7.9
398,HOTEL RUDRAKSH PLAZA,"Rangpuri Stand,Near I.G.I. Airport Rangpuri N.H-8, Mahipalpur, Mahipalpur, 110037 New Delhi, India",28.54149108,77.12949589,,
399,Classic Inn,"No. 5/1, 6th Cross, Off Old Airport Road, Near Manipal Motors, HAL 2nd Stage, 560008 Bangalore, India",12.9626,77.64645300000001,102.0,7.8
400,"Mystic Greens Homestay, Coorg","Mystic Greens Homestay, Mysore - Madikeri Rd, Kushalnagar, Karnataka - 571 104, 571104 Kushālnagar, India",12.441764599999999,75.9461112,16.0,8.8
401,Hotel Black Tie - Raja Park,"Opp. Punjab National Bank, Transport Nagar, A-8,, 302004 Jaipur, India",26.910929,75.84207099999999,,
402,Monsoon Resort Udaipur,"Near Gitanjali Medical College Eklinghpura Udaipur, 313002 Udaipur, India",24.55446,73.732671,,
403,cyber inn,"1199AB Sector 38 behind medanta hospital, 122003 Gurgaon, India",28.439502,77.040834,,
404,OYO 24095 Radha Swami Guest House,"27a, Phoola Singh Burj road, 143001 Amritsar, India",31.626942,74.888289,,
405,The Whispering Inn By Vivaan,"Club House road, Manali, 175131 Manāli, India",32.23800549,77.18573570000001,152.0,9.1
406,"2 BHK for 6, near Baga Beach","544 V8, Monte Guirim Aradi, Room no. 238 Bardez, Goa, 403510 Assagao, India",15.56073,73.79942,5.0,9.1
407,Hotel Rich,"BM road bylakuppe - kushlanagar-571104 B M road bylakuppe, 571104 Kushālnagar, India",12.452811,75.967253,,
408,Treebo Trend Yantra Leisures,"105, Snowdon Road, Ooty, Tamil Nadu- 643001, 643001 Ooty, India",11.42106711,76.70453862,237.0,7.2
409,OYO 13134 Grand Regency,"1, Earning point, Mandakni chauraha, Kolar Road, 462042 Bhopal, India",23.18465743,77.41690021,5.0,6.2
410,OYO 40850 Orchid Inn,"woods road ( G.P road ), royapettah, Chennai, 600002 Chennai, India",13.059445,80.265682,,
411,Noble Heritage Hotel & Resort,"GRBA Road, Chongay Taar (Near Boys Hostel) Gangtok, Sikkim, 737103, 737103 Gangtok, India",27.346344000000002,88.648703,4.0,
412,Capital O 60898 Hotel Amour,"00, Hotel Amour, Opp. Peninsula Grand, 90 Ft. Road, Near Sakinaka Metro Station, Satya Nagar, Sathi D Souza Nagar, Andheri East, Mumbai, 400072 Mumbai, India",19.102818,72.88825,,
413,Zoe Chromepet Service Apartment,"Lakshmipuram 1st Street Brindavan Apartment Muthamzhil nagar Chromepet, 600044 Chennai, India",12.96021,80.12920150000001,1.0,
414,Pals Inn,"29/6, East Patel Nagar, Main Market, 110008 New Delhi, India",28.64510797,77.16857225,6.0,7.9
415,Hotel Pranav International,"Gonikoppal, Coorg, Karnataka, 571213 Gonikoppal, India",12.18274684,75.92676202,19.0,7.5
416,OYO 69995 Alankar Tower,"1, 11 mile ,Indus Towne, Ratanpur, Bhopal, 462047 Bhopal, India",23.147701,77.479,,
417,HighQ Manali,"Kanyal Road Simsa Village, 175131 Manāli, India",32.224563,77.18464399999999,25.0,9.0
418,"Red Fox Hotel, Vijayawada","D. No. 27-44-8, Patibandavari Street, M G Road, Governorpet, Vijayawada - 520002, Andhra Pradesh, 520002 Vijayawāda, India",16.51088505,80.62045400000001,8.0,8.2
419,The Avenue Orlim,"Gulley, Orlim, Salcete, 403724 Cavelossim, India",15.19778707,73.9418292,8.0,7.8
420,Tall Silver by Vista Rooms,"Tall silver, Madikeri, Coorg, 571201 Madikeri, India",12.40112727,75.9066239,7.0,8.8
421,OYO 8941 Hotel Golden Leaves,"Near Wells Fargo,Nanakram Guda, Hitech City, Prashanti Hill, 500009 Hyderabad, India",17.4202,78.3796,21.0,7.1
422,Hotel Park Paradise Manali,"Nagger Road Aleo Naw Manali 175131 Nagger Road Aleo New Manali 175131, Aleo, 175131 Manāli, India",32.240102,77.192829,,
423,Manira Service Apartment,"Nammami Services, 302, Annapurna Apts Mithila Nagar Colony, Near Kamaan, Road No-12,Banjarahills, Syed Nagar, Banjara Hills, Hyderabad, Andhra Pradesh 500034, 500034 Hyderabad, India",17.40664104,78.43646586,6.0,7.5
424,Hotel Tejasvi,"A-94, Sundar Nagar 200 Feet, Ajmer Road, Jaipur, 302019 Jaipur, India",26.888619,75.736859,,
425,The Regalia Alphonso Goa,"127/2 VITHALDASWADA MORJIM PERNEM, 403512 Goa Velha, India",15.631623000000001,73.73895999999999,,
426,Modern 2BHK Homestay Near Boat House,"1, Keerthana Appartments,Flat No C4,Thavalakuppam, 605007 Pondicherry, India",11.8703767,79.796345,,
427,Amruthu Residency,"AMRUTHU RESIDENCY M. C ROAD KOOTHATTUKULAM, 686662 Cochin, India",9.862105999999999,76.596514,12.0,7.2
428,Hotel City Premier,"Plot 6303, DLF Phase 4, Near Super Mart - I, 122002 Gurgaon, India",28.46246162,77.08699286,51.0,7.0
429,Lago villa,"17,Shamla road, near SBI bank Bhopal, 462002 Bhopal, India",23.24922919,77.39420772,80.0,9.2
430,Calagunte suites,"Calagunte house no 5/10A Maddo vaddo, 403516 Marmagao, India",15.540545999999999,73.757924,1.0,
431,Central Guest House,"13A, Chittaranjan Ave, Chandni Chawk, Bow Barracks Opposite E Mall, 700072 Kolkata, India",22.56704396,88.35407022,267.0,5.2
432,FabHotel Transit Delhi Airport,"A-58,NH-8, Rad no-4, Mahiplapur, Near IGI Airport, Mahipalpur, 110037 New Delhi, India",28.549703000000004,77.128988,462.0,6.5
433,Hotel Orchid Rooms,"Piyali Phukan Road, Opp. House NO. 20, Near Aerobic World, Rehabari, 781008 Guwahati, India",26.17309,91.75325600000001,,
434,FabExpress Windflower,"27, 33,Dr Ambedkar Road,Bungalow 27, Near Imppa House Pali Village, opposite, Zig Zag Road, Bandra West, Bandra, 400050 Mumbai, India",19.0643935,72.8300433,7.0,6.0
435,Fairfield by Marriott Amritsar,"Albert Road, 143001 Amritsar, India",31.636219,74.866906,1080.0,8.4
436,HOTEL ATITHI,"13 Tyagi Road 13 Tyagi Road, 248001 Dehradun, India",30.312741,78.036149,,
437,OYO 1159 Hotel Chandra Prakash,"Near Salikha Hanuman Mandir,Kalaji Goraji, Lake Palace Road, Udaipur, 313001 Udaipur, India",24.57429783,73.68905506,42.0,7.5
438,Hopping Frog Beach Front,"719/2, St Anthony Prais, Dmello Vaddo, Monteiro Vaddo, Opposite UV bar, 403509 Anjuna, India",15.579309,73.738883,75.0,8.4
439,OYO 60191 18 Miles,"NH3, 18 Mile, Bran, Himachal Pradesh, Manali, 175143 Manāli, India",32.16827,77.177155,,
440,The Continentti,"#669, 1st mail road, AECS Layout C Block, Brookefeild, 560037 Bangalore, India",12.962782,77.708939,2.0,
441,Jacaranda Holiday Home,"48/517G, Mechancy Garden ,Fort Kochi Kochuparambil, 682001 Cochin, India",9.956323,76.243764,,
442,Compact 2BHK Oasis Near Promenade Beach,"Maravadi Street, Flat No.1 (G/F), Kuruchikuppam, Pondicherry, 605011 Pondicherry, India",11.923630000000001,79.83721,,
443,OYO 16952 Easy Stay,"136, Rachna Nagar, Near M.P. Nagar, 462023 Bhopal, India",23.2418039,77.43726090000001,,
444,OYO 69611 Hotel Mannat,"00, Main Kanjhawala Road, Near Braham Shakti Hospital, Pooth Kalan, Rohini, Delhi, Rohini, 110086 New Delhi, India",28.709808000000002,77.08089,2.0,
445,Treebo Trip Dreamland Guest House,"EB-6, Desh Bandhu Nagar, Baguihati, 700059 Kolkata, India",22.61733691,88.42484287,18.0,6.6
446,SPOT ON 60093 Konkan Katta Dhaba And Lodging SPOT,"Sawantwadi, opposite shefali polce chowky, Uttan, Mira Bhayandar, Mumbai, 400068 Mumbai, India",19.258825,72.79252,1.0,
447,Khas Bagh,"Village Natata, Amber ,Jaipur, 302028 Jaipur, India",27.0150043,75.9201622,11.0,8.9
448,OYO 9516 Retreat Anjuna Resort,"Opposite Lotus inn, Zor Waddo Anjuna, Bardez North Goa, 403509 Assagao, India",15.60391045,73.75227356,8.0,7.9
449,OYO Flagship 44951 Chaitanya,"Sinhgad College Rd, Jadhav Nagar, Vadgaon Budruk, Pune, 411011 Pune, India",18.467812,73.828094,,
450,Hotel Aroma,"Satnam Mansion. 190, Dr Ambedkar Road Near Chitra cinema , Dadar East, Dadar, 400014 Mumbai, India",19.01382778,72.84470272,73.0,6.1
451,StayEden - Stylish homestay near Airport - 2BHK,"Flat number 201, Sukhakarta Apartment, Adiwasi Society, Manish Nagar, 440015 Nagpur, India",21.096815,79.073081,,
452,Horizon Heights,"126 Sastri Road Ram nagar, 641009 Coimbatore, India",11.013450500000001,76.9598277,,
453,Shri Akshar Hotel,"New Civil Hospital badia limbdi road near next tv showroom , asarva, 380016 Ahmedabad, India",23.04868918,72.60159909999999,15.0,6.0
454,The Amrit Goa,"961 The Amrit Goa, 403515 Candolim, India",15.518588000000001,73.766784,20.0,9.4
455,"Standard 1BR Stay near Huda City Center, Gurgaon","Block C, Sushant Lok Phase I, Gurgaon, 122002 Gurgaon, India",28.459365999999996,77.08209000000001,,
456,Hotel Luxury Stay,"Kh. No 552, Main Vasant Kunj Road Near Mata Chowk,Mahipalpur, Mahipalpur, 110037 New Delhi, India",28.542381,77.129605,11.0,6.8
457,Trident Nariman Point,"Nariman Point, 400021 Mumbai, India",18.92765091,72.82058001,3580.0,9.0
458,Sanman Hotels,"Vaddem Main Road, 403802 Vasco Da Gama, India",15.398601000000001,73.828613,109.0,6.9
459,OYO 15764 Hotel Akash Continental,"CE-1, CE-1, Shaheed Mangal Pandey Marg, Nanak Pura, Hari Nagar, 110064 New Delhi, India",28.625890999999996,77.110959,2.0,
460,SPOT ON 3054 Hotel New Center Point SPOT,"Opposite Sindhi Camp Bus Stand, Near Metro station, Jaipur, 302013 Jaipur, India",26.921358,75.80074,,
461,OYO 28325 Dhillon Residency,"0, Karoran Road, 160103 Chandīgarh, India",30.774879,76.79728100000001,,
462,Hotel Icon,"Mahipalpur - Rangpuri Road NH-8 New Delhi, Mahipalpur, 110037 New Delhi, India",28.543191999999998,77.123641,9.0,8.8
463,OYO Flagship 39299 Aqualura,"SY No 3/2 of REIS-MAGOS Village,Nerul, Goa, 123456 Old Goa, India",15.508061999999999,73.80455,,
464,OYO 4025 Hotel Meredian Orchid,"11-4-650-15,Lakdi Ka pul, Lakdi Ka Pul, 500004 Hyderabad, India",17.4,78.46,3.0,4.2
465,OYO 49216 Dreams Manor,"Vellala St, Chennai, 600085 Chennai, India",13.083097,80.25109,1.0,
466,Tembewadda house,"Colomb Beach, 403702 Canacona, India",15.00265006,74.02718246,1.0,
467,Stay N Move M Block GK 1 Market,"C193 M Block Market Greater Kailash 1 Road C193 First Floor Grater Kailash Part 1 New Delhi, Greater Kailash 1, 110048 New Delhi, India",28.549248,77.236779,9.0,6.1
468,JK Rooms 122 Shaheen-Nr. Mahindra Co.-MIDC,"X-10, Behind St.Xavier's High School, Near Mahindra & Mahindra Ltd., Hingna MIDC, Hingna Road, , 440016 Nagpur, India",21.115513,79.007288,1.0,
469,Comfort Villa,"60 VOC Street VILLA VASANTE, 605001 Pondicherry, India",11.927674,79.82519599999999,60.0,7.8
470,OYO 48807 Hotel Sahyog,"pardi bajar square, Nagpur, 440035 Nagpur, India",21.151344,79.16084000000001,,
471,Tuliipstays - Mayfair Hillcrest,"Flat No. 302, A Wing, Mayfair Hillcrest Building, Hiranandani Link Road, Behind Municipal School, Near Kailash Complex, Lbs Road, Vikhroli West,, 400079 Mumbai, India",19.107395999999998,72.91548399999999,1.0,
472,Hotel Sukhman Residency,"3.a queen road Hotel lane Amritsar Near crystal Chowk behind obc bank, 143001 Amritsar, India",31.636639000000002,74.87447900000001,2.0,
473,Bella Corona by Vista Rooms,"Bardez Goa, 403510 Calangute, India",15.57091398,73.78186245,,
474,Laguna Vista Beach Huts,"Ho No 261 Colomb, 403702 Canacona, India",15.00265,74.027182,6.0,9.1
475,OYO 22559 Mild Inn,"GT Rd, Opposite Bus Stand, 143001 Amritsar, India",31.631116,74.883866,1.0,
476,OYO 28694 Hotel Parikshit Palace,"A-15, Galli No 2, Near IGI Airport, A-- Block, K-Block, Mahipalpur Village, Mahipalpur, Mahipalpur, 110037 New Delhi, India",28.54344526,77.12598346,,
477,"BSS,Near Hiranandani Hospital","Hiranandani Hospital Road 401-B, Supreme Aishwarya, Near Hiranandani Hospital,Powai, Powai, 400076 Mumbai, India",19.120401,72.91708,3.0,7.2
478,mountain villa,"Woodcock Road 51,thamirabarani illam, heaven holidays, ooty, 643001 Ooty, India",11.40962498,76.69218108,,
479,Stay Insta Serviced Apartments Goregaon,"Unnat Nagar Road No 1, 400104 Mumbai, India",19.16678961,72.84349579,3.0,5.3
480,OYO 14681 Hotel Super inn,"SUDHOWALA CHOWK, NEAR INDIAN OVERSEAS BANK NEAR INDIAN OVERSEAS BANK, 248007 Dehradun, India",30.345169,77.93588100000001,1.0,
481,Jagmandir Island Palace - Grand Heritage,"The Palace Complex, Lake Pichola, 313001 Udaipur, India",24.57644604,73.68243697,6.0,8.1
482,OYO Flagship 568 Bandra Mumbai,"Hotel Bandra Residency, Bansidhar Bhuvan, Turner Road, Bandra West, Bandra, 400050 Mumbai, India",19.056239,72.839362,67.0,6.3
483,Le Grande Residency,"Old Sharda Mandir Cross Road, behind Gujarat College, Ellisbridge, Ellis Bridge, 390006 Ahmedabad, India",23.02019941,72.55972713,18.0,7.5
484,The Little Prince Heritage Home,"Outside Chand Pole, Cross the Bridge, Near Hanumanghat, Naga Nagri, 313001 Udaipur, India",24.58019018,73.6791712,243.0,8.0
485,SPOT ON 68820 Aadesh Niwas,"S19/250, S19/250, Moni Chowk, Katra Ahluwalia, Amritsar, 143001 Amritsar, India",31.61597022,74.87830706,,
486,Kimberly Homes,"11 Stone Valley Balakola Village, 643004 Ooty, India",11.33551593,76.67884333,,
487,SilverKey Executive Stays 61381 Blue Executive Saki Naka,"Saki Vihar Complex, Off Saki Vihar Road, Saki Naka, Ansa Industrial Estate, Chandivali, Powai, 400072 Mumbai, India",19.10797775,72.88941152,,
488,OYO Flagship 29530 Payal Hotel,"OYO 29530 Payal Hotel, Plot No 143, MCCH Society, Panvel, 410216 Mumbai, India",18.98771923,73.11499368,,
489,Floressa Twigs,"No.3/148, Kumaran Kudil, 3rd Cross Street, Thoraipakkam, Thoraipakkam, 600097 Chennai, India",12.94117,80.241047,3.0,
490,Hotel Aiwan-e-Shahi,"1061-Paiwalan Dariba Near Gate No. 3 Jama Masjid, 110006 New Delhi, India",28.65171787,77.23273152,422.0,7.4
491,OYO 63554 Rajshree Guest House,"Gautam Nagar, 462023 Bhopal, India",23.239635999999997,77.439756,,
492,OYO 37482 Shree Roop Ganga Hotel & Resorts,"00, mr10, Bhangarh road, 453555 Indore, India",22.776770000000003,75.874461,,
493,Sai Vishram Business Hotel,"144 - C/1, Kirloskar road, Bommasandra Industrial Estate, Hebbagodi, 560099 Bangalore, India",12.82442046,77.68172577,47.0,7.4
494,SPOT ON 63708 Motel Himalaya,"24 , Govind Nagar , Near Pani Tanki , Naya Gaon, 160103 Chandīgarh, India",30.775194,76.797111,1.0,
495,Shail Shikhar,"Spring Road Next to ITBP gate., 248179 Mussoorie, India",30.459909999999997,78.06639799999999,5.0,9.3
496,German Courtyard Backwater Facing Villa,"German Courtyard, No 20, Thevara, Near Ferry, Kochi, Kerala, Ernakulam, 602013 Cochin, India",9.92402001,76.30212402,4.0,9.3
497,Falcons Nest Studio service Apartment,"Plot No 79,Phase 1,Kaveri Hills,Madhapur, 500081 Hyderabad, India",17.44104097,78.40015948,2.0,
498,Cozy 1 Bedroom apartment Morjim Beach,"Near Temwada Bus stop, 403512 Morjim, India",15.61915602,73.73634176,,
499,OYO Home 64344 Elegant Stay Bhandup,"LBS Rd, near SBI bank. Compound, Bhandup, Sadan wadi, Bhandup West, Mumbai, 400078 Mumbai, India",19.153631,72.937264,,
500,OYO 63265 Sri Nirvana Inn,"Corporation Bank Building, Arunodaya Colony, Sri Sai Nagar, Madhapur, Hyderabad, Madhapur, 500081 Hyderabad, India",17.444746,78.38718399999999,,
501,OYO 48616 Urban House,"Sector 38, Gurgaon, 122001 Gurgaon, India",28.437336,77.03918,,
502,OYO 15429 IIDM Eco Center,"Omaxe, New Hazratganj, Sec 7, Gomti Nagar Extension, Shaheed Path, 226002 Lucknow, India",26.810274,80.996421,3.0,4.1
503,Paying guest rooms,"FLAT 9 AKHARA CHATTE WALA MAHANA SINGH ROAD NEAR GOLDEN TEMPLE AMRITSAR 3 3 rd floor, 143006 Amritsar, India",31.619979999999998,74.876485,,
504,Hotel Rose Lodge,"350 shukrawar peth Shivaji road near mandai Hotel Pyasa, 411002 Pune, India",18.511979,73.85763399999999,2.0,
505,OYO 66982 Hotel Skyway Inn,"23, 23, Andheri - Ghatkopar Rd, Swatantrya Veer Savarkar, Lokmanya Tilak Nagar, Saki Naka, Mumbai, 400072 Mumbai, India",19.101397,72.891417,,
506,SilverKey Executive Stays 29058 Saket,"B-53, Block B, Shivalik Colony, Malviya Nagar, Malviya Nagar, 110017 New Delhi, India",28.53632,77.208577,7.0,8.9
507,OYO 29134 Virasat Guest House,"1/201, Vinamra Khand, Gomti Nagar, Lucknow, Uttar Pradesh, Gomti Nagar, 226010 Lucknow, India",26.86325,81.026754,,
508,Hotel Baljeet Lodge,"A2/13, Opp. Bhikaji Cama Palace, Safdarjung Enclave, 110029 New Delhi, India",28.566734000000004,77.189603,77.0,6.9
509,Riverside Bay,"H.NO. 539 ,Baga , Calangute,Goa Villa Simoes , Baga ,Calangute, Goa, 403516 Calangute, India",15.553916000000001,73.757886,,
510,Capital O 978 Marshall The Hotel,"Station Road Nr Moti Bakery Kapasia Bazar , 380002 Ahmedabad, India",23.030306,72.59913900000001,32.0,7.2
511,Mayank Residency,"Murray Peth Near J Excellency, 412806 Mahabaleshwar, India",17.923689000000003,73.657997,2.0,
512,SPOT ON 60797 Sri Natarajaa Kalyana Mandapam SPOT,"#490-A, GNT Road (Near Service Lane), Redhills, Kanappasamy Nagar, Puzhal, Chennai, 600066 Chennai, India",13.180738,80.19287,,
513,OYO Home 63850 Elegant Stay,"Pocket 7, Sector 22, Rohini, Delhi, Rohini, 110086 New Delhi, India",28.719859999999997,77.062164,,
514,OYO 8240 Golden Park Palam Vihar,"Plot No. -1, Opp C2 Block, Gate No1, Palam Vihar Road, Near Blossom School,, 122001 Gurgaon, India",28.49464251,77.02052177,5.0,7.3
515,OYO 14854 Hotel Shubh Stay Inn,"3/133, vishesh khand, gomti nagar 3/133, vishesh khand, gomti nagar, Gomti Nagar, 226010 Lucknow, India",26.861464,81.012659,24.0,8.3
516,Beach paradise,"AS-4, 3rd floor L & L costa vista verde Pedda, 403721 Varca, India",15.223648999999998,73.937302,56.0,9.4
517,Premium Abode in Delhi (Exclusive Offer!),"S57A, S57A,Rajpur khurd ext ,Chattarpur, Chattarpur, 110068 New Delhi, India",28.489247,77.188046,1.0,
518,Bani Park Hotel,"D-160, Kabir Marg,Opposite Bank of Baroda, Near collectorate circle, 302016 Jaipur, India",26.924773499999997,75.7893398,16.0,7.7
519,OYO 27895 Memo Rooms,"3rd Woodcock Road, Heaven Hills, Near Boat House, 643006 Ooty, India",11.40915994,76.68634694,3.0,4.0
520,Viva Guest House,"4th floor, Cardozodo Building, Near K.T.C Bus-Stand,, 403001 Panaji, India",15.497586800000002,73.83577614,21.0,5.4
521,Exotic Stay Near Chennai Railway Museum,"Bajanai Kovil Street, Officers colony , PADI, Chennai, 600050 Chennai, India",13.093009,80.183136,,
522,OYO 40682 Hotel Lake City Pride Saver,"Bairagarh, Near Muskan Garden, Bhopal, 462030 Bhopal, India",23.272415,77.33005,1.0,
523,OYO 70358 New Era Residency,"4135, Sector 23A, Gurgaon, 122017 Gurgaon, India",28.505240999999998,77.04855,,
524,SPOT ON 60603 Hp Residency,"Main Market, Madangir, Delhi, 110076 New Delhi, India",28.53347,77.298965,,
525,OYO 49097 Comfort Palace Saver,"Kiran Garden oppmetro pillar 719 nawada metro station,matiala, Delhi, 110059 New Delhi, India",28.620388000000002,77.047714,,
526,OYO 6312 Hotel Paris Residency,"1st Floor,Kasam Meetha Building,Behind Kailash Lassi, D.S. Phalke Road, Dadar, 400014 Mumbai, India",19.01647,72.8431,19.0,4.4
527,Chennai guest house,"No.9, jawharlaal Nehru salai 100feet road,arumbakkam,koyambedu, 600106 Chennai, India",13.065055000000001,80.210523,8.0,6.4
528,FabHotel Flora Vastral,"Alok Plaza, Opp. Reliance Petrol Pump, Sardar Patel Ring Road, Vastral, Near Vatwa GIDC, Ahmedabad - 382418, 382418 Ahmedabad, India",23.00405616,72.66729712,166.0,8.0
529,Ramee Techome,"Plot No 786, 03rd Road, Near Gurudwara, Khar West, Mumbai - 400 052, Khar, 400052 Mumbai, India",19.0667237,72.83897774,114.0,7.8
530,artresidency,"bungalow no 174.sardar patel nagar andheri weast andheri weast, 400053 Mumbai, India",19.134989,72.82253100000001,2.0,
531,The H and S Stays,"Biligiri mekeri, Madikeri, Karnataka 571201, India Biligiri Junction mekeri, Madikeri, Karnataka 571201, India, 571201 Madikeri, India",12.381826,75.747029,4.0,8.8
532,Rudra Residency,"Samaspur Road Rudra residency near radha krishna mandir, 122003 Gurgaon, India",28.427426,77.0658,,
533,Mateus Boutique Hotel,"Rua 31 De Janeiro La Fontainhas, Fontainhas, 403001 Panaji, India",15.4973279,73.83149909999999,92.0,8.5
534,Vamoose Naadmane Cottage,"Gonikoppal,Karnataka.India Hebbale Estate, Devarapura, Gonicoppal, Karnataka, 571213 Gonikoppal, India",12.201594,75.94649100000001,,
535,Yahvi The Boutique Hotel,"H.No.1579/2, Zor Vaddo, Near Vagator petrol pump, Anjuna, Bardez, 403509 Vagator, India",15.59817162,73.75104997,1.0,
536,OYO Flagship 64557 Sourabh Vrindavan Palace Colony,"EA-202, EA-202, Vrindavan Palace Colony, Pipliya Kumar, Indore, 452010 Indore, India",22.76604,75.90823,,
537,OYO 66531 Clarz Fine Rooms,"Clarz Fine Rooms, Clarz Fine Rooms, 333, Surojit Gogoi Path, Zoo Narengi Road, Guwahati, 781024 Guwahati, India",26.17342,91.77905,,
538,OYO 23305 Saaaj Resorts,"245, E-8, Salaiya, Infornt of aakriti Greens, 462042 Bhopal, India",23.16198898,77.44809765,,
539,HOTEL DE-NEAR BLK HOSP.,"8A/44, Channa Market, Block 8A, WEA, Karol Bagh, New Delhi, Delhi 110005 8A/44, Channa Market, Block 8A, WEA, Karol Bagh, New Delhi, Delhi 110005, Karol bagh, 110005 New Delhi, India",28.64525,77.18309,7.0,7.9
540,OYO 46624 Hotel Western,"W.E.A,channa market, Karol bagh, 110005 New Delhi, India",28.6451783,77.18500111,,
541,1 BHK Apartment at Mahanirban Rd. Kolkata,"63A, Mahanirban Road, 700029 Kolkata, India",22.5193562,88.3567223,25.0,7.6
542,"5 min walk to osho resort, koregaon park ,KP 02","burning ghat road popular heights 4 , j-6 ., 411001 Pune, India",18.542296,73.88839300000001,,
543,"OYO Townhouse 221 Sec 46, Gurgaon","Huda Colony, Sector 46, Gurgaon, 122003 Gurgaon, India",28.42922,77.05866999999999,,
544,The Bristol,"DLF Phase-I, near Sikanderpur Metro Station,M.G.Road,, 122002 Gurgaon, India",28.479723200000002,77.09164113,150.0,7.1
545,Hotel LILY BAY INN,"C 315, SIDDHARTH NAGAR AIRPORT TERMINAL 2 ROAD, JAWAHAR CIRCLE, 302017 Jaipur, India",26.833378999999997,75.808181,6.0,6.2
546,OYO Townhouse 62 Cyber City,"147, DLF Phase 2, Sector 25, Akashneem Marg, 122002 Gurgaon, India",28.486271000000002,77.080872,,
547,Hyphen Business Hotel,"C-45 Sector-62 Noida- Uttar Pradesh (201301) Supertech Building Noida-62, 201301 Noida, India",28.610913,77.364395,19.0,6.6
548,OYO 24205 White Castle,"Buroshibtalla Main Rd, Buroshibtalla, Behala, Kolkata, 123456 Kolkata, India",22.505064,88.33383,,
549,The Anton Hotel,"Kacheripady,Kochi,Kerala Near Marine Drive,Kochi, Ernakulam, 682018 Cochin, India",9.99047,76.28511800000001,27.0,9.3
550,OYO 48853 Hotel Sunshine,"23/250, Block B, Hemu Kalani, Bairagarh, bhopal, 462001 Bhopal, India",23.26875,77.332806,,
551,The Holiday Villa Resorts & Spa,"Kanyal Road, 175131 Manāli, India",32.224421,77.182461,8.0,8.8
552,QUICK INN,"97 Nawab Hyder Ali Khan Road KALASIPAYAM, 560002 Bangalore, India",12.960513,77.57767700000001,32.0,5.8
553,SPOT ON 68390 Sunrise Homestay,"Near Clock Tower Landour Bazaar, 248179 Mussoorie, India",30.45538775,78.08656029,,
554,Treebo Trend Radhe Palace,"882, Lake town, Block A, 700089 Kolkata, India",22.60658611,88.40281159,128.0,7.6
555,S & K Residency,"Karshaka Road AnjiparambilArcade, near East entry, ernakulam south railway station, Ernakulam, 682016 Cochin, India",9.96946,76.291042,37.0,7.3
556,Hotel Embassy,"18 Dhamawala, Near Raja Road, Paltan Bazaar, 248001 Dehradun, India",30.319005999999998,78.037137,24.0,6.5
557,Home Sky View StudioMadikeri,"2, Bolthanda house ,Abbey Falls Road, Hebbettageri, 571201 Madikeri, India",12.45054506,75.72225004,3.0,8.6
558,SPOT ON 29574 Hotel Gold Star Inn,"NEAR MADGAON RAILWAY STATION, ON MARGAO FIRE BRIGADE SIDE OPP. ST SEBASTIAN CHURCH, Goa, 403601 Marmagao, India",15.271709,73.97034000000001,,
559,OYO 47899 Shelter,"527/A, ASHIRWAD NAGAR, Near Shiv mandir,near Mhalagi nagar square, 440024 Nagpur, India",21.11003675,79.11936135,23.0,7.5
560,Matoshree Executive,"Kavasji Street, Near Union Bank, 412806 Mahabaleshwar, India",17.923803,73.65723100000001,1.0,
561,Villa By The Beach Goa,"Benaulim Beach Road, 403716 Benaulim, India",15.25712113,73.92021194,25.0,9.2
562,OYO 15929 Comfort Residency,"B2 , B2 sector 71, 201301 Noida, India",28.595419,77.373558,,
563,OYO 44973 Meghna Residency,"Sector 12A Rd, Sector 12, Gurgaon, 122001 Gurgaon, India",28.47162,77.03119000000001,,
564,Umaid Residency - A Regal Heritage Home,"SR-62,63,64, RICCO, Kukas, Delhi-Jaipur Highway, Near Amber Fort, 302028 Jaipur, India",27.03117081,75.89553148,103.0,8.1
565,Collection O 24512 Neelangarai,"1st Avenue, 1st Steet , Vettuvankeni, Neelangarai, ECR, 600115 Chennai, India",12.9362,80.25159918,2.0,
566,Nap On Map Hostel,"Government housing scheme, Jawarharlal Nehru Road, Anand Nagar, Vakola, Santacruz East 18/137, Nap On Map Hostel, Santacruz, 400055 Mumbai, India",19.08213139,72.84752643,196.0,9.2
567,OYO 62768 Gm Royals,"4th Main Rd, Poornapragna Housing Society Layout, Bangalore, 560061 Bangalore, India",12.90847,77.53406,,
568,Montego Bay Beach Village,"Vithaldas Vaddo, 403512 Morjim, India",15.62853621,73.72781038,20.0,8.0
569,Capital O 47340 Aruna Tourist Home,"Aluva - Munnar Road, Kochi, 683542 Cochin, India",10.114754,76.47496,,
570,Luxurious Apartment - Chandīgarh,"House No 1510, Sector 18-D, 160018 Chandīgarh, India",30.73270686,76.78235728,19.0,9.4
571,Hotel Uday Himalaya,"Sajjannu Ville, Rangri, NH3, Himachal Pradesh, 175131 Manāli, India",32.224245,77.189217,,
572,Mustard Seed Farm Cottages,"Ranipool Rumtek Road Sajong, East Sikkim, 737135 Gangtok, India",27.301994,88.57231999999999,1.0,
573,Hotel Terminal View,"Southern side T-2 Runway, KIA Toll Free Road, Yerthiganahalli, Near IIBS College Begur Village, BK Halli Road, KIAL Toll Free Road,, 562149 Bangalore, India",13.198132999999999,77.667507,11.0,4.8
574,Rose Residency,"plot no 37 sector 9 dwarka new delhi-110077 near sector 9 metro station, Dwarka, 110077 New Delhi, India",28.574462,77.065225,2.0,
575,"Classic 3BHK Homestay in Panjim, Goa","181 C3, Ribander Conservation Area, National Highway 4A, Ilhas, 403006 Ribandar, India",15.502126,73.87062,,
576,FabHotel Landmark Guestline,"A206, Landmark Guest Line, Sector 20 Turbe Opp APMC Fruit Market, Mumbai, Maharashtra, 400093, 400093 Mumbai, India",19.07819,73.01444599999999,,
577,OYO 35767 Dynasty Homes,"MS Ramaiah City Layout, 8th Phase, Arekere, Bangalore, 560076 Bangalore, India",12.880286,77.58842,,
578,OYO 11058 Shelton Suites Manayata,"61, 5th cross, behind Akshiya apartment, Nagawara junction HBR layout, 560043 Bangalore, India",13.0407707,77.6250975,2.0,
579,OYO 70458 South Galaxy,"Plot no 76, 80 Feet Rd, Block M, Delhi, 110048 New Delhi, India",28.533754,77.24448000000001,,
580,OYO 43975 Honey Residency,"GKD Nagar, Nehru Nagar West, Coimbatore, Coimbatore, 641035 Coimbatore, India",11.051467,77.03141,,
581,OYO 62021 Hotel Tulip Palace,"A-52, 53 Opp. Metro Station, Walking, Bus Stand, Vivek Nagar, Kanti Nagar, Sindhi Camp, Jaipur, 302006 Jaipur, India",26.92282175,75.79936288,,
582,Taj Chandigarh,"Block No 9, Sector 17 A, 160017 Chandīgarh, India",30.74521984,76.7849949,650.0,8.5
583,Capital O 68914 Hotel Jp Residency,"H14/389, hotel jp residency ,H14/389, Sharifpura, Amritsar, 143001 Amritsar, India",31.62979039,74.88645092,,
584,OYO 48259 Hotel Geetanjali,"Nilkanth Avenue, Nr Kailash Estate, Nr. Odhav Chowkdi, S P ring road , Nava Nikol, Ahmedabad, 382350 Ahmedabad, India",23.030338,72.67407,,
585,OYO 22394 Club Residency,"Club Residency, WZ- 523/1 near Ramesh Nagar metro gate no.1 Gurdwara Wali Road, 110015 New Delhi, India",28.654866,77.13050799999999,1.0,
586,Hukam Palace,"Vasant Kunj Road Near Oriental Bank Of Commerce, 110037 New Delhi, India",28.535747999999998,77.14088199999999,2.0,
587,SPOT ON 63635 Hotel Swagat Palace,"DB Gupta Road, Block 57, Karol Bagh, Delhi, Karol bagh, 110005 New Delhi, India",28.65250491,77.19383363,3.0,3.0
588,OYO 11556 Om Guest House Residency,"415, Jharsa Village, sec 39, 122001 Gurgaon, India",28.439153100000002,77.0469484,4.0,
589,OYO 11716 Hotel Everest,"766, Amba Mata Mandir, Rani Rd, Fateh Sagar Lake, Udaipur, Rajasthan 313001, 313001 Udaipur, India",24.59165787,73.67325031,1.0,
590,OYO Townhouse 049 HSR Layout,"HSR layout , 855/1, HSR layout sector 3 22nd cross Rd Near HSR Club, sector 3 HSR layout, Bangalore, 560102 Bangalore, India",12.909317,77.64019,2.0,
591,OYO 67341 Divine Motel,"00, Park avenue, shivalik Vihar,Khuda Alisher Road, Nayagaon, 160103 Chandīgarh, India",30.77092,76.79514,,
592,Four Points by Sheraton Chennai OMR,"# Survey No. 169, Plot No. 1B & 1 A Rajiv Gandhi Salai Kumaran Nagar,Sholinganallur, 600119 Chennai, India",12.87571766,80.22503648,20.0,8.9
593,Hotel New Orchid,"Development Area, Gangtok, Sikkim -, 737101 Gangtok, India",27.33822487,88.61098051,5.0,7.3
594,Mount Manor,"14, GST, Road , Chennai , 600016 Chennai, India",12.9987148,80.1927254,78.0,6.6
595,HOTEL STAY HOUSE,"CHANDIWALI Gali MAIN BAZAR PAHARGANJ NEW DELHI 921 CHANDIWALI GALI MAIN BAZAR PAHARGANJ, Paharganj, 110055 New Delhi, India",28.641726000000002,77.215541,4.0,4.3
596,The Orchid Hotel,"5th floor, Madhav Orchid Complex, Odhav circle, S.P. Ring road, 382415 Ahmedabad, India",23.017193,72.67054499999999,4.0,7.1
597,Providence Plaza,"Keston Road Providence Plaza, 695003 Trivandrum, India",8.515448300000001,76.9595997,,
598,On The House,"B-4/120 Safdarjung Enclave, Safdarjung Enclave, 110029 New Delhi, India",28.56412772,77.19574034,51.0,7.9
599,"The Ritz-Carlton, Pune","Golf Course Square, Airport Road, Yerwada, 411006 Pune, India",18.55241914,73.89024487,18.0,9.4
600,Treebo Trend Royal Inn," #435, KRS Road, Metagalli, Ring Road Junction, Hebbal 1st Stage, Mysuru, Karnataka, 400607 Mysore, India",12.35156044,76.62857383,58.0,7.5
601,Elegant 2BHK Stay near Pondicherry Railway Station(950 m),"2 (4) , Petit Canal Street, Pondicherry, 605001 Pondicherry, India",11.932244,79.82813,,
602,FabExpress SVL,"35 CHITRA NAGAR INDORE NEAR MEDANTA HOSPITAL, 452010 Indore, India",22.747889,75.898901,20.0,7.8
603,Cukoos Nest,"SJD Street 10/228 (C), chiratapalam, fort kochi, 682001 Cochin, India",9.95923232,76.24673724,23.0,9.4
604,Chairman's Resort,"No 14/1 , Kodigehalli Main Road, Sahakar nagar , Hebbal, Near Twin Tower, 560092 Bangalore, India",13.058273300000002,77.58607686,62.0,7.1
605,Capital O 4493 Apple Hotel,"10-1-20/A, Opposite RTC Complex Asilametta, 530002 Visakhapatnam, India",17.724025899999997,83.30648029999999,,
606,Nisarg Niwas,"Mahabaleshwar Panchgani Road, At village- Avakali, Mahabaleshwar, 412806 Mahabaleshwar, India",17.922013,73.711258,60.0,7.6
607,Kesar D Villa,"E-15/E-15(1), Kings Street, 1st Avenue, Lal Bahadur Nagar (West), J.L.N. Marg Malviya Nagar, 302018 Jaipur, India",26.84860956,75.80126677,1.0,
608,Hotel Bangalore Inn,"24/1, Doddanakundi,Outer Ring Road, Next to Bagmane World Tech Center Marathalli, 560037 Bangalore, India",12.983512,77.693924,1.0,
609,Hotel Ocean Inn,"Kanya road Sims village Kanyal road Simsa village, 175131 Manāli, India",32.224421,77.182461,,
610,Hill Track Tavern,"Fort Aguada Road Sinquerim, 403515 Candolim, India",15.498437,73.772097,3.0,6.7
611,Chyvic Staycity,"No.122-A, Rangapillai Street, Near KFC, 605001 Pondicherry, India",11.935236999999999,79.82851600000001,12.0,9.0
612,SPOT ON 46509 Shri Balaji Yatri Niwas SPOT,"K1-1 Blunt Square, Near Kanpur Taxi Stand, Mawaiya, Lucknow, Lucknow, 226004 Lucknow, India",26.832924,80.91475,,
613,The Leela Palace Chennai,"Adyar Seaface, MRC Nagar, 600028 Chennai, India",13.01694764,80.27398288,729.0,9.0
614,Saiesh International Hotel,"NH-17, Opp Industrial Estate Ward-3, Karaswada, Near Bandekar Petrol Pump, 403507 Mapusa, India",15.61469845,73.82247297,9.0,6.3
615,Lake Paradise,"Kapila Gateway, Near Sumanraj Resort,Opp Venna Lake,Mahableshwar, 412806 Mahabaleshwar, India",17.935337,73.673349,10.0,8.5
616,Collection O 15227 Calangute Resort Tio,"Opp. Le Meredien, Gaurra Vaddo, Calangute - Candolim Road, 403515 Calangute, India",15.532291800000001,73.764038,11.0,6.4
617,OYO 12214 Hotel Soyang,"MG Marg, Near Pantaloons, 737101 Gangtok, India",27.325128000000003,88.604487,2.0,
618,Das Holidays,"House No 5/58C/1 Street No Calangute Goa 403516, 403616 Calangute, India",15.54325047,73.75723739,20.0,9.2
619,Hotel Mountain Trail Manali,"Hadimba Road Manali, 175131 Manāli, India",32.24525148,77.18289524,26.0,9.4
620,Blessed Spot Destination,"Gadherni Village, Shalin Road, near Hotel MBN, 175131 Manāli, India",32.217675,77.185571,1.0,
621,Elim Homestay,"Chirattappalam,, 682001 Cochin, India",9.96128465,76.24509305,24.0,9.1
622,Vrinda Palace,"24-25, Vishnu Path, Keshav Vihar, Gopalpura Bypass Road, 302018 Jaipur, India",26.872785999999998,75.77422800000001,1.0,
623,The Artist Cottages,"gawde wada, 403512 Morjim, India",15.63449746,73.72351423,7.0,8.5
624,Hotel Brijinn,"S.t. bus Stand Near S.T. bus stand adjacent to khurana travels, ganeshpeth, nagpur, 440018 Nagpur, India",21.137689,79.0956,5.0,8.1
625,SEA SUN RESIDENCY,"East Coast Road Kottakuppam main road, 605101 Pondicherry, India",11.98411282,79.84556689,,
626,Suvarna Compact,"No. 980, A & F Block,, 570023 Mysore, India",12.287708,76.626527,27.0,6.9
627,OYO 16383 Raj Palace,"Hotel Raj Palace, 17-18, Sharda Shopping Centre, Near Rabari Colony BRTS Stop, National Highway-8, Amraiwadi, Rabari Colony, 380026 Ahmedabad, India",23.0042198,72.636682,,
628,Chandraveer Niwas,"Chandraveer Niwas 767 rani road fateh sagar fateh sagar lake, 313001 Udaipur, India",24.591624,73.672503,1.0,
629,Betts's Plantation by Vista Rooms,"Kadagadalu post, Madikeri, 571248 Madikeri, India",12.41168146,75.78065294,1.0,
630,OYO 9581 Green Residency,"842p, sector 47, 122002 Gurgaon, India",28.430835,77.046894,7.0,6.1
631,OYO 2764 Hotel Manvins Inn,"Near Kismat Lodge, Behind Chinese Garden Restaurant,Gauravado, 403516 Calangute, India",15.53523354,73.76422405,,
632,Sili Homestay,"# c 11 omkar muliya layout near fmkmc college madikeri, 571201 Madikeri, India",12.429466699999999,75.72207698,16.0,9.1
633,1BR Well-furnished Stay near Medica Hospital,"Purbalok, 7th Street, Mukundapur, Kolkata, West Bengal, Kolkata, 700099 Kolkata, India",22.497028,88.402336,,
634,Blue Nest Management,"5E 5th floor Bellagio, Rajarhat Main Road, Action Area II D, Near Derozio College, 700156 Kolkata, India",22.63140887,88.44957590000001,77.0,6.5
635,Grand Mercure Bangalore - an AccorHotels Brand,"3rd Block, 12th Main,Koramangala, 560034 Bangalore, India",12.92909697,77.62743384,74.0,7.7
636,OYO Flagship 16484 Splendid Park,"107, Swamy Vivekananda Rd, M.G. Railway Colony, Ulsoor, Ulsoor, 560008 Bangalore, India",12.97942815,77.62913402,,
637,The Metropolitan Hotel & Spa New Delhi,"Bangla Saheb Road, Connaught Place, 110001 New Delhi, India",28.63147082,77.20812142,2742.0,8.1
638,Krishna Kunja Guest House,"35/1 swami vivekananda road kolkata 700074, 700074 Kolkata, India",22.621826000000002,88.405912,24.0,8.5
639,Chardara Eco Agrotourism,"Vatambe Post, Varoshi Tel Jaoli, District Satara, 415012 Mahabaleshwar, India",17.884262,73.742464,5.0,8.4
640,Hotel Calangute Baga Road,"Calangute-Baga Road, Baga,, Khobra Waddo, Calangute, 403516 Baga, India",15.554056,73.757165,2.0,
641,OYO 14723 Diamond Deluxe,"AG-23 Shalimar Bagh New Delhi 110088,yes bank building AG-23 Shalimar Bagh New Delhi 110088,Yes bank building, 110088 New Delhi, India",28.70212,77.16408100000001,1.0,
642,Kingsway Hotel,"amritsar 35,Hide Market. Rambagh Chowk, 143001 Amritsar, India",31.630845,74.878052,1.0,
643,OYO 44535 Mona Regency Hotel And Banquets,"C-189 PNB Madhuban Near Nirman Vihar Metro station Delhi, 110092 New Delhi, India",28.631707000000002,77.288679,12.0,5.4
644,Hyatt Pune,"Kalyani Nagar, 88 Nagar Road (Adj. Aga Khan Palace), Kalyani Nagar, 411006 Pune, India",18.55407839,73.90470207,662.0,8.3
645,Alpanest Homestay,"21 U.C.BORO PATH,RUPNAGAR Behind Rupnagar L.P.School, 781032 Guwahati, India",26.15868331,91.75951516,1.0,
646,Green Grande Inn,"No. 21/113, Periyar Pathai, Choolaimedu Near 100 ft. Road Thirunagar Signal, 600094 Chennai, India",13.05859698,80.21181972,13.0,6.0
647,GKG Hotel,"GKG Hotel. Shivar Building. Laxmi Baug. Opp Sion Railway Station. Sion (W)., 400022 Mumbai, India",19.046123,72.86228,,
648,ROYAL RESIDENCY,"NO. 19/6 S.V. CHIDAMBARAM SALAI, JAFFERKHAN PET, 600083 Chennai, India",13.026954,80.210915,,
649,Hotel Neelam,"Motilal Atal Road, Near Ganpati Plaza, 302006 Jaipur, India",26.91995848,75.79897463,,
650,Club Mahindra Udaipur,"Paras Hill Resort, NH-8 Balicha, Near Indo American School, 313001 Udaipur, India",24.50396562,73.6587435,6.0,5.6
651,GRAND EASTERN RESIDENCY,"MIKIR PATH,NALAPARA N.H. GUWAHATI,NEAR MARCEEDEZ SHOW ROOM, 781034 Guwahati, India",26.110982999999997,91.764635,1.0,
652,The Raas Mahal,"Amer Road 59-62 Nagar Nigam Colony Opposite Chiturkuth Park , Amer Road, 302002 Jaipur, India",26.943283,75.838336,1.0,
653,OYO 68864 Hotel Spark,"19, Ajmer Rd, Devi Niketan Compound, Mission Compound, Gopalbari,, Jaipur, 302001 Jaipur, India",26.914694,75.794361,,
654,Manbodh niwas,"Charan Bhatta Road Near sgpgi Lucknow, 226025 Lucknow, India",26.752719,80.94543900000001,1.0,
655,City-View Studio Home in Kr Puram,"K V G Omkar, Basavanapura main road Battarahalli, Krishnarajapura, Bangalore, 560036 Bangalore, India",13.01495556,77.70938254,1.0,
656,Siesta Manyata Tech Park,"Site No. 124, Survey No. 84/2 ETC, 8th Cross, Telecom Layout, HBR Layout, 560043 Bangalore, India",13.04170672,77.63045769,9.0,8.1
657,Anand Niwas,"Chromepet Railway Station Road, 600044 Chennai, India",12.951551,80.142163,2.0,
658,hotel s.s royal,"chowk baba sahib near golden temple chowk baba sahib near golden temple, 143001 Amritsar, India",31.61726784,74.87887782,15.0,8.5
659,Travel Lodge First In,"Madel, KTC Bus Stand, Behind Margao Trade Center Near Radha Krishna Hotel, 403601 Madgaon, India",15.28913825,73.95354132,8.0,7.1
660,SPOT ON 46303 Mahalakshmi Inn SPOT,"5th St, Alagiri Nagar, Vadapalani, Chennai, 600026 Chennai, India",13.057042,80.21284,3.0,3.8
661,OYO 49051 Hotel Crown Plaza,"karoran road nayagaon, Nayagaon, 160103 Chandīgarh, India",30.778126,76.801895,,
662,Friends clubhouse with rooftop views of Ocean,"Calangute-Baga Rd, Near Britto's Bar & Restaurant, 403516 Baga, India",15.561328,73.749461,,
663,Hotel Moon shine,"80 Naga Nagri outside chand pole near hotel leela palace, 313001 Udaipur, India",24.579014,73.678804,5.0,9.3
664,Double V Mandrem,"Junos Vaddo, 403527 Mandrem, India",15.66916437,73.71316672,3.0,10.0
665,E Hotel,"Express Avenue Mall, Gate no-1, Mount Road (Pattulos Road), 600002 Chennai, India",13.05829943,80.26443958,439.0,8.3
666,Hide away,"359,SHEELA VILLA KERADA ROAD,LOVEDALE,OOTY, 643003 Ooty, India",11.381825,76.701904,48.0,8.5
667,Estate Stay - Riverside Coffee,"Riverside Estate Madikeri Road, Siddapur, 571253 Siddapur, India",12.30313802,75.86736761,50.0,9.5
668,Grand Bhabendra Alay,"60, Basistha Road, Survey Beltola,, 781028 Guwahati, India",26.10138278,91.79617173,227.0,7.7
669,OYO Home 49915 Beautiful Independent Studios,"Dr E Borges Rd, La Citadel Colony, Dona Paula., Goa, 403004 Marmagao, India",15.457984,73.81170999999999,,
670,SPOT ON 38659 Tusar Motel Lodging,"tushar, Sinhgad Rd, Girinagar, 411025 Pune, India",18.413248100000004,73.7627497,,
671,OYO 60657 Hotel Nobel Executive,"nobel ececutive , Mahabaleshwar, Mahabaleshwar, 412806 Mahabaleshwar, India",17.9226265,73.6583407,,
672,Malar Residencey,"433, Bharathi Street,, 605001 Pondicherry, India",11.934844,79.827124,24.0,7.6
673,Eden Villa,"Eden Villa, 581 N, Pocket 4, Omaxe New Chandigarh, 140901 Chandīgarh, India",30.806682300000002,76.7080159,3.0,
674,Casa Nobert,"Opposite Nanu restaurant, just after Wanderers Hostel, Central Morjim junction, after Morjim Church, 403512 Morjim, India",15.62897992,73.73541176,20.0,8.3
675,OYO 27624 Verb Inn,"10/1, Ho Chi Main Sarani, 700034 Kolkata, India",22.4868514,88.2873398,,
676,Capital O 48482 Hotel Tribecca Inn,"Plot No. 486, Shahi Building, Opp. Vastrapur Lake, Near Vastrapur Fountain, Vastrapur, 380015 Ahmedabad, India",23.03775507,72.527203,26.0,7.4
677,Hotel G Glossy,"Hussainpura Chowk 162 Hussain Pura West, 143001 Amritsar, India",31.632365000000004,74.881869,2.0,
678,Hotel The Tanish,"Plot No. 60/A(OLD), 123/A1(New), Second Floor, KH No. 341, Road No. 2, Block-A, Mahipalpur, Mahipalpur, 110037 New Delhi, India",28.547607,77.127623,9.0,6.8
679,Bistar Hostel - Bhopal,"54-A, Shamla Road Near Bharat Bhavan, 462002 Bhopal, India",23.247811,77.39340899999999,5.0,10.0
680,Swarna Sudarshan Service Apartments @ Thoraipakkam OMR Road,"Vivekanandar Street,Indira Nagar Okkiyam Thoraipakkam,OMR Road, Thoraipakkam, 600097 Chennai, India",12.92675207,80.23229282,1.0,
681,OYO 22595 Hotel Heritage Palace,"9, N-Z Cidco, API Corner, Besides Bhavani Petrol Pump, Kamgar Chowk, Mayanagar Colony, N 2, Cidco, 431007 Aurangabad, India",19.87324891,75.3694088,1.0,
682,R M LODGE,"SIXMILE ABOVE AJANTA FOOTWEAR, 781022 Guwahati, India",26.131904000000002,91.809108,,
683,OYO 65940 Sky Residency,"Dadri Main Rd, Goyal Colony, Salarpur Khadar, Sector 102, Noida, 201304 Noida, India",28.54189648,77.38702996,,
684,Hotel Raaj Bhaavan TMN,"04, dr. thirumurthy nagar main road, Nungambakkam, 600034 Chennai, India",13.0557433,80.2464734,38.0,7.3
685,Akhil Classic,"Chettikulangara Road NEAR ARIESPLEX THEATRE, MG ROAD, 695001 Trivandrum, India",8.488524,76.946072,337.0,8.5
686,Heritage Time Traveller's,"50, 2nd Main, Munireddy Layout, Horamavu 5 Minutes from Horamavu Signal or Vijaya Bank Colony Bus Stop, 560043 Bangalore, India",13.019644,77.658253,15.0,7.9
687,OYO 8147 Short Stay Homes,"BMPS Road, Beside Lane Andhra Bank, Prasadampadu, 521108 Vijayawāda, India",16.519346,80.691066,,
688,Barsana Boutique - A Veg Hotel,"84/3,Topsia Road(south) Beside Ganges Ford Showroom, 700046 Kolkata, India",22.546151899999998,88.38613740000001,108.0,7.9
689,AmNeu Village House,"Hotel Mountain Top Near DPS School Hidimba Road Dungari Manali, 175131 Manāli, India",32.246909,77.17877800000001,39.0,8.6
690,Smart Rooms By Shree Vatika,"1, Soma Vihar Colony, behind Sun Villas Chuna Bhatti, Bhopal, Madhya Pradesh, 462016 Bhopal, India",23.197923,77.41375500000001,,
691,Hotel Saptagiri,"9-1-220, St Mary's Rd, Opp.Passport Office, Close To Railways Station, 500003 Hyderabad, India",17.43795492,78.49976331,38.0,7.2
692,Kaza A Le Pearl Resort,"1611 Grand Chivar, Opposite Vagator Petrol Pump, 403509 Anjuna, India",15.594891,73.751295,26.0,8.6
693,Papaya Tree Hotel,"Rau Indore Bypass Square, Opposite Dr. Hardia Eye hospital AB Road, Rau, 453331 Indore, India",22.71665678,75.85021019,41.0,7.1
694,OYO 49786 Gokul Guest House Deluxe,"Nagarjuna Nagar colony, Yella Reddy Guda, Hyderabad, 500073 Hyderabad, India",17.4324,78.44375600000001,1.0,
695,OYO 16948 Hotel Jp Palace,"1550, Hotel J.p. Palace, Burail, Sector 45b, near 45 -46 lights, 160047 Chandīgarh, India",30.706581,76.759271,4.0,7.1
696,Royal orbit,"Plot no 71,sector 9 dwarka new delhi-110077, Dwarka, 110077 New Delhi, India",28.57913,77.071049,5.0,3.2
697,Restwel - Male Only,"38th road , TPS 3 , Bandra west Bandra west , Gurunanak road , near PWC building, Bandra, 400050 Mumbai, India",19.058417000000002,72.837739,38.0,7.3
698,Rama Golden Root New town,"CA 86 New Town Rajarhat, 700156 Kolkata, India",22.577703,88.464023,82.0,9.0
699,Hotel Platinum,"14 Syed Amir Ali Avenue 4th floor, 700017 Kolkata, India",22.54170205,88.36538568,250.0,6.9
700,SPOT ON 63930 Athar Guest House Spot-on,"Masjid Ahl al Hadith, Kasabpura, Mominpura, Nagpur, 440018 Nagpur, India",21.153996,79.095816,,
701,Hotel Chanakya,"Modi no 3 .Sitabuldi Main Road,Near Railway station, 440001 Nagpur, India",21.14344833,79.08396989,56.0,5.7
702,West Yard Hotels,"Plot No 4 And 5 ,Main Green Park, Near Sukhmani Hospital New Delhi 110016, 110016 New Delhi, India",28.563736,77.207461,15.0,6.9
703,Caribbean Casa island Resort,"North Kumbalangi Patasekharam Road, 682007 Cochin, India",9.893327099999999,76.2864859,1.0,
704,Karon Hotels - Lajpat Nagar,"61, Ring Road, lajpat Nagar - 3, Kailash Colony, 110024 New Delhi, India",28.55527449,77.23903656,16.0,7.3
705,Capital O 62236 Four Seasons Resort Deluxe,"Shende patil vasati ,At post MALE , taluka MULSHI, Pune, 412108 Pune, India",18.51988,73.52065,1.0,
706,ManJe BistRe-1,"Purani Lakkar Mandi I/s sultanwind gate near jallianwala bagh, 143006 Amritsar, India",31.620348999999997,74.88257,41.0,7.9
707,OYO 27618 Arcadia Inn 2,"28 Snehl, park road, near C.M. Residence, Raj Bhavan Colony, The Mall Avenue, Lucknow, Uttar Pradesh, 226001 Lucknow, India",26.840925,80.95083333,1.0,
708,"Treebo Trip Coral Tree,Lucknow","Plot No CP- 167 Viraj Khand Behind Singapore Mall Uttar Pradesh, Gomti Nagar, 226010 Lucknow, India",26.855284,81.022896,126.0,6.7
709,Sai Regency,"52/2,Kuruli Bhosari-Chakan Road, Tal-Khed, Dist-Pune, 410501 Pune, India",18.70546776,73.84769772,2.0,
710,"Vivanta Hyderabad, Begumpet","1-10-147&148, Mayuri Marg Begumpet, 500016 Hyderabad, India",17.44351541,78.46060842,576.0,8.3
711,Beach facing Cottage in Calangute Goa,"spring beach cottages, near fisherman's point tivai vaddo, 403516 Calangute, India",15.538662099999998,73.7592319,7.0,6.4
712,Cozy Furnished Apartment One Block From The Ocean,"b/6 shelter apartment near rizvie college sharley rajan road bandra west lane between icici and abhudiya bank, 400050 Mumbai, India",19.065870899999997,72.8248318,7.0,10.0
713,Sea Horse,"Goekar Vaddo, 403509 Anjuna, India",15.57258226,73.74174312,18.0,5.8
714,"Premium 1BR Stay on Rajpur Road, Dehradun","harisharnam, 2nd Floor, Hari Sharnam, Canal Road, Kishanpur, 248001 Dehradun, India",30.364628000000003,78.075725,1.0,
715,Balaji Residency,"336/14, N R N COMPLEX, PIPE LINE, YESHWANTHPUR, 560022 Bangalore, India",12.997041000000001,77.523934,4.0,
716,Raghuvanshi Law,"Kanpur Road, 12 New Indralok, Near Krishna Nagar, Metro Station, 226023 Lucknow, India",26.79460375,80.89153231,1.0,
717,Shine Star Amritsar,"Golden Temple Road Near Golden temple, 143006 Amritsar, India",31.621388,74.87866899999999,2.0,
718,Hotel Apna Avenue,"23/3 New Palasia, 452001 Indore, India",22.72715446,75.88118652,25.0,8.0
719,OYO Home 47070 Elegant Stay Rajarhat,"Gouranganagar Dhalai Rasta, Sulanggari, Hatiara, Kolkata, 700057 Kolkata, India",22.591196,88.45725,,
720,The Tranquil,"Thanthipala Road Makkandur, 571201 Madikeri, India",12.468175,75.755765,,
721,Mangal Tirth Krishna Vatika,"near R.K. circle new 80 feet road, pula, 313001 Udaipur, India",24.607149,73.699945,,
722,OYO 67297 Hotel Jarnail Inn,"219/1, Chamde wala bazar Katra kanhai, near telephone exchange, Amritsar, 143001 Amritsar, India",31.626369,74.875473,,
